{
  "metadata": {
    "source": "Generated from bd-constituencies.json voter data",
    "estimation_method": "Voter-to-population ratio (1:1.54)",
    "generated_at": "2025-12-26T16:17:48.597Z",
    "note": "Population estimates based on registered voters. Update with BBS census data for accuracy."
  },
  "statistics": {
    "total_constituencies": 300,
    "total_population": 155646724,
    "total_voters": 101069302,
    "urban_constituencies": 44,
    "rural_constituencies": 256,
    "urban_population": 25145855,
    "rural_population": 130500869,
    "missing_coordinates": 15,
    "missing_voters": 9
  },
  "constituencies": [
    {
      "id": "1",
      "name_english": "Panchagarh-1",
      "name": "পঞ্চগড় -১",
      "total_population": 672861,
      "registered_voters": 436923,
      "urban_classification": "rural",
      "lat": 26.32999992370605,
      "long": 88.55999755859375,
      "division_id": "6",
      "division_english": "Rangpur",
      "district_id": "31",
      "district_english": "Panchagarh"
    },
    {
      "id": "2",
      "name_english": "Panchagarh-2",
      "name": "পঞ্চগড় - ২",
      "total_population": 600509,
      "registered_voters": 389941,
      "urban_classification": "urban",
      "lat": 26.20000076293945,
      "long": 88.55000305175781,
      "division_id": "6",
      "division_english": "Rangpur",
      "district_id": "31",
      "district_english": "Panchagarh"
    },
    {
      "id": "3",
      "name_english": "Thakurgaon-1",
      "name": "ঠাকুরগাঁও - ১",
      "total_population": 740138,
      "registered_voters": 480609,
      "urban_classification": "rural",
      "lat": 26.09000015258789,
      "long": 88.27999877929688,
      "division_id": "6",
      "division_english": "Rangpur",
      "district_id": "33",
      "district_english": "Thakurgaon"
    },
    {
      "id": "4",
      "name_english": "Thakurgaon-2",
      "name": "ঠাকুরগাঁও-২",
      "total_population": 489678,
      "registered_voters": 317973,
      "urban_classification": "rural",
      "lat": 26.09000015258789,
      "long": 88.27999877929688,
      "division_id": "6",
      "division_english": "Rangpur",
      "district_id": "33",
      "district_english": "Thakurgaon"
    },
    {
      "id": "5",
      "name_english": "Thakurgaon-3",
      "name": "ঠাকুরগাঁও - ৩",
      "total_population": 462026,
      "registered_voters": 300017,
      "urban_classification": "rural",
      "lat": 23.63999938964844,
      "long": 88.8499984741211,
      "division_id": "6",
      "division_english": "Rangpur",
      "district_id": "33",
      "district_english": "Thakurgaon"
    },
    {
      "id": "6",
      "name_english": "Dinajpur-1",
      "name": "দিনাজপুর-১",
      "total_population": 529860,
      "registered_voters": 344065,
      "urban_classification": "rural",
      "lat": 25.86000061035156,
      "long": 88.6500015258789,
      "division_id": "6",
      "division_english": "Rangpur",
      "district_id": "26",
      "district_english": "Dinajpur"
    },
    {
      "id": "7",
      "name_english": "Dinajpur-2",
      "name": "দিনাজপুর -২",
      "total_population": 472132,
      "registered_voters": 306579,
      "urban_classification": "rural",
      "lat": 25.6299991607666,
      "long": 88.55000305175781,
      "division_id": "6",
      "division_english": "Rangpur",
      "district_id": "26",
      "district_english": "Dinajpur"
    },
    {
      "id": "8",
      "name_english": "Dinajpur-3",
      "name": "দিনাজপুর - ৩",
      "total_population": 538336,
      "registered_voters": 349569,
      "urban_classification": "rural",
      "lat": 25.6200008392334,
      "long": 88.63999938964844,
      "division_id": "6",
      "division_english": "Rangpur",
      "district_id": "26",
      "district_english": "Dinajpur"
    },
    {
      "id": "9",
      "name_english": "Dinajpur-4",
      "name": "দিনাজপুর -৪",
      "total_population": 528046,
      "registered_voters": 342887,
      "urban_classification": "rural",
      "lat": 25.64999961853027,
      "long": 88.7699966430664,
      "division_id": "6",
      "division_english": "Rangpur",
      "district_id": "26",
      "district_english": "Dinajpur"
    },
    {
      "id": "10",
      "name_english": "Dinajpur-5",
      "name": "দিনাজপুর - ৫",
      "total_population": 614834,
      "registered_voters": 399243,
      "urban_classification": "rural",
      "lat": 25.65999984741211,
      "long": 88.91000366210938,
      "division_id": "6",
      "division_english": "Rangpur",
      "district_id": "26",
      "district_english": "Dinajpur"
    },
    {
      "id": "11",
      "name_english": "Dinajpur-6",
      "name": "দিনাজপুর-৬",
      "total_population": 718014,
      "registered_voters": 466243,
      "urban_classification": "rural",
      "lat": 25.42000007629395,
      "long": 89.08000183105469,
      "division_id": "6",
      "division_english": "Rangpur",
      "district_id": "26",
      "district_english": "Dinajpur"
    },
    {
      "id": "12",
      "name_english": "Nilphamari-1",
      "name": "নীলফামারী -১",
      "total_population": 573704,
      "registered_voters": 372535,
      "urban_classification": "rural",
      "lat": 26.14999961853027,
      "long": 88.91999816894531,
      "division_id": "6",
      "division_english": "Rangpur",
      "district_id": "30",
      "district_english": "Nilphamari"
    },
    {
      "id": "13",
      "name_english": "Nilphamari-2",
      "name": "নীলফামারী-২",
      "total_population": 480072,
      "registered_voters": 311735,
      "urban_classification": "rural",
      "lat": 25.93000030517578,
      "long": 88.86000061035156,
      "division_id": "6",
      "division_english": "Rangpur",
      "district_id": "30",
      "district_english": "Nilphamari"
    },
    {
      "id": "14",
      "name_english": "Nilphamari-3",
      "name": "নীলফামারী-৩",
      "total_population": 363703,
      "registered_voters": 236171,
      "urban_classification": "rural",
      "lat": 26.02000045776367,
      "long": 89.0199966430664,
      "division_id": "6",
      "division_english": "Rangpur",
      "district_id": "30",
      "district_english": "Nilphamari"
    },
    {
      "id": "15",
      "name_english": "Nilphamari-4",
      "name": "নীলফামারী -৪",
      "total_population": 572878,
      "registered_voters": 371999,
      "urban_classification": "rural",
      "lat": 25.78000068664551,
      "long": 88.9000015258789,
      "division_id": "6",
      "division_english": "Rangpur",
      "district_id": "30",
      "district_english": "Nilphamari"
    },
    {
      "id": "16",
      "name_english": "Lalmonirhat-1",
      "name": "লালমনিরহাট - ১",
      "total_population": 489892,
      "registered_voters": 318112,
      "urban_classification": "rural",
      "lat": 26.1200008392334,
      "long": 89.13999938964844,
      "division_id": "6",
      "division_english": "Rangpur",
      "district_id": "29",
      "district_english": "Lalmonirhat"
    },
    {
      "id": "17",
      "name_english": "Lalmonirhat-2",
      "name": "লালমনিরহাট- ২",
      "total_population": 533354,
      "registered_voters": 346334,
      "urban_classification": "rural",
      "lat": 25.96999931335449,
      "long": 89.22000122070312,
      "division_id": "6",
      "division_english": "Rangpur",
      "district_id": "29",
      "district_english": "Lalmonirhat"
    },
    {
      "id": "18",
      "name_english": "Lalmonirhat-3",
      "name": "লালমনিরহাট- ৩",
      "total_population": 388454,
      "registered_voters": 252243,
      "urban_classification": "rural",
      "lat": 25.92000007629395,
      "long": 89.44999694824219,
      "division_id": "6",
      "division_english": "Rangpur",
      "district_id": "29",
      "district_english": "Lalmonirhat"
    },
    {
      "id": "19",
      "name_english": "Rangpur-1",
      "name": "রংপুর - ১",
      "total_population": 443503,
      "registered_voters": 287989,
      "urban_classification": "urban",
      "lat": 25.85000038146973,
      "long": 89.22000122070312,
      "division_id": "6",
      "division_english": "Rangpur",
      "district_id": "32",
      "district_english": "Rangpur"
    },
    {
      "id": "20",
      "name_english": "Rangpur-2",
      "name": "রংপুর -২",
      "total_population": 481737,
      "registered_voters": 312816,
      "urban_classification": "rural",
      "lat": 25.67000007629395,
      "long": 89.05000305175781,
      "division_id": "6",
      "division_english": "Rangpur",
      "district_id": "32",
      "district_english": "Rangpur"
    },
    {
      "id": "21",
      "name_english": "Rangpur-3",
      "name": "রংপুর -৩",
      "total_population": 680173,
      "registered_voters": 441671,
      "urban_classification": "urban",
      "lat": 25.76000022888184,
      "long": 89.23999786376953,
      "division_id": "6",
      "division_english": "Rangpur",
      "district_id": "32",
      "district_english": "Rangpur"
    },
    {
      "id": "22",
      "name_english": "Rangpur-4",
      "name": "রংপুর -৪",
      "total_population": 636005,
      "registered_voters": 412990,
      "urban_classification": "rural",
      "lat": 25.65999984741211,
      "long": 89.41000366210938,
      "division_id": "6",
      "division_english": "Rangpur",
      "district_id": "32",
      "district_english": "Rangpur"
    },
    {
      "id": "23",
      "name_english": "Rangpur-5",
      "name": "রংপুর-৫",
      "total_population": 595078,
      "registered_voters": 386414,
      "urban_classification": "rural",
      "lat": 25.56999969482422,
      "long": 89.2699966430664,
      "division_id": "6",
      "division_english": "Rangpur",
      "district_id": "32",
      "district_english": "Rangpur"
    },
    {
      "id": "24",
      "name_english": "Rangpur-6",
      "name": "রংপুর -৬",
      "total_population": 451211,
      "registered_voters": 292994,
      "urban_classification": "rural",
      "lat": 25.42000007629395,
      "long": 89.30999755859375,
      "division_id": "6",
      "division_english": "Rangpur",
      "district_id": "32",
      "district_english": "Rangpur"
    },
    {
      "id": "25",
      "name_english": "Kurigram-1",
      "name": "কুড়িগ্রাম -১",
      "total_population": 710735,
      "registered_voters": 461516,
      "urban_classification": "rural",
      "lat": 25.96999931335449,
      "long": 89.69000244140625,
      "division_id": "6",
      "division_english": "Rangpur",
      "district_id": "28",
      "district_english": "Kurigram"
    },
    {
      "id": "26",
      "name_english": "Kurigram-2",
      "name": "কুড়িগ্রাম - ২",
      "total_population": 759768,
      "registered_voters": 493356,
      "urban_classification": "rural",
      "lat": 25.80999946594238,
      "long": 89.63999938964844,
      "division_id": "6",
      "division_english": "Rangpur",
      "district_id": "28",
      "district_english": "Kurigram"
    },
    {
      "id": "27",
      "name_english": "Kurigram-3",
      "name": "কুড়িগ্রাম -৩",
      "total_population": 466640,
      "registered_voters": 303013,
      "urban_classification": "rural",
      "lat": 25.65999984741211,
      "long": 89.62000274658203,
      "division_id": "6",
      "division_english": "Rangpur",
      "district_id": "28",
      "district_english": "Kurigram"
    },
    {
      "id": "28",
      "name_english": "Kurigram-4",
      "name": "কুড়িগ্রাম -৪",
      "total_population": 445245,
      "registered_voters": 289120,
      "urban_classification": "rural",
      "lat": 25.56999969482422,
      "long": 89.83000183105469,
      "division_id": "6",
      "division_english": "Rangpur",
      "district_id": "28",
      "district_english": "Kurigram"
    },
    {
      "id": "29",
      "name_english": "Gaibandha-1",
      "name": "গাইবান্ধা-১",
      "total_population": 522289,
      "registered_voters": 339149,
      "urban_classification": "rural",
      "lat": 25.56999969482422,
      "long": 89.5199966430664,
      "division_id": "6",
      "division_english": "Rangpur",
      "district_id": "27",
      "district_english": "Gaibandha"
    },
    {
      "id": "30",
      "name_english": "Gaibandha-2",
      "name": "গাইবান্ধা -২",
      "total_population": 515384,
      "registered_voters": 334665,
      "urban_classification": "rural",
      "lat": 0,
      "long": 0,
      "division_id": "6",
      "division_english": "Rangpur",
      "district_id": "27",
      "district_english": "Gaibandha"
    },
    {
      "id": "31",
      "name_english": "Gaibandha-3",
      "name": "গাইবান্ধা -৩",
      "total_population": 569487,
      "registered_voters": 369797,
      "urban_classification": "rural",
      "lat": 25.38999938964844,
      "long": 89.47000122070312,
      "division_id": "6",
      "division_english": "Rangpur",
      "district_id": "27",
      "district_english": "Gaibandha"
    },
    {
      "id": "32",
      "name_english": "Gaibandha-4",
      "name": "গাইবান্ধা -৪",
      "total_population": 594896,
      "registered_voters": 386296,
      "urban_classification": "rural",
      "lat": 25.13999938964844,
      "long": 89.38999938964844,
      "division_id": "6",
      "division_english": "Rangpur",
      "district_id": "27",
      "district_english": "Gaibandha"
    },
    {
      "id": "33",
      "name_english": "Gaibandha-5",
      "name": "গাইবান্ধা -৫",
      "total_population": 483183,
      "registered_voters": 313755,
      "urban_classification": "rural",
      "lat": 25.11000061035156,
      "long": 89.58000183105469,
      "division_id": "6",
      "division_english": "Rangpur",
      "district_id": "27",
      "district_english": "Gaibandha"
    },
    {
      "id": "34",
      "name_english": "Joypurhat-1",
      "name": "জয়পুরহাট -১",
      "total_population": 614837,
      "registered_voters": 399245,
      "urban_classification": "rural",
      "lat": 25.10000038146973,
      "long": 89.02999877929688,
      "division_id": "5",
      "division_english": "Rajshahi",
      "district_id": "19",
      "district_english": "Joypurhat"
    },
    {
      "id": "35",
      "name_english": "Joypurhat-2",
      "name": "জয়পুরহাট -২",
      "total_population": 473239,
      "registered_voters": 307298,
      "urban_classification": "rural",
      "lat": 25.05999946594238,
      "long": 89.16999816894531,
      "division_id": "5",
      "division_english": "Rajshahi",
      "district_id": "19",
      "district_english": "Joypurhat"
    },
    {
      "id": "36",
      "name_english": "Bogra-1",
      "name": "বগুড়া -১",
      "total_population": 489056,
      "registered_voters": 317569,
      "urban_classification": "rural",
      "lat": 24.88999938964844,
      "long": 89.56999969482422,
      "division_id": "5",
      "division_english": "Rajshahi",
      "district_id": "18",
      "district_english": "Bogura"
    },
    {
      "id": "37",
      "name_english": "Bogra-2",
      "name": "বগুড়া -২",
      "total_population": 456465,
      "registered_voters": 296406,
      "urban_classification": "rural",
      "lat": 25,
      "long": 89.31999969482422,
      "division_id": "5",
      "division_english": "Rajshahi",
      "district_id": "18",
      "district_english": "Bogura"
    },
    {
      "id": "38",
      "name_english": "Bogra-3",
      "name": "বগুড়া-৩",
      "total_population": 456562,
      "registered_voters": 296469,
      "urban_classification": "rural",
      "lat": 24.81999969482422,
      "long": 89.04000091552734,
      "division_id": "5",
      "division_english": "Rajshahi",
      "district_id": "18",
      "district_english": "Bogura"
    },
    {
      "id": "39",
      "name_english": "Bogra-4",
      "name": "বগুড়া-৪",
      "total_population": 480605,
      "registered_voters": 312081,
      "urban_classification": "rural",
      "lat": 24.82999992370605,
      "long": 89.26000213623047,
      "division_id": "5",
      "division_english": "Rajshahi",
      "district_id": "18",
      "district_english": "Bogura"
    },
    {
      "id": "40",
      "name_english": "Bogra-5",
      "name": "বগুড়া-৫",
      "total_population": 732484,
      "registered_voters": 475639,
      "urban_classification": "rural",
      "lat": 24.67000007629395,
      "long": 89.41999816894531,
      "division_id": "5",
      "division_english": "Rajshahi",
      "district_id": "18",
      "district_english": "Bogura"
    },
    {
      "id": "41",
      "name_english": "Bogra-6",
      "name": "বগুড়া-৬",
      "total_population": 596410,
      "registered_voters": 387279,
      "urban_classification": "rural",
      "lat": 24.85000038146973,
      "long": 89.37000274658203,
      "division_id": "5",
      "division_english": "Rajshahi",
      "district_id": "18",
      "district_english": "Bogura"
    },
    {
      "id": "42",
      "name_english": "Bogra-7",
      "name": "বগুড়া-৭",
      "total_population": 710733,
      "registered_voters": 461515,
      "urban_classification": "rural",
      "lat": 24.8799991607666,
      "long": 89.44999694824219,
      "division_id": "5",
      "division_english": "Rajshahi",
      "district_id": "18",
      "district_english": "Bogura"
    },
    {
      "id": "43",
      "name_english": "Chapainawabganj-1",
      "name": "চাঁপাইনবাবগঞ্জ-১",
      "total_population": 640843,
      "registered_voters": 416132,
      "urban_classification": "rural",
      "lat": 24.68000030517578,
      "long": 88.16000366210938,
      "division_id": "5",
      "division_english": "Rajshahi",
      "district_id": "22",
      "district_english": "Nawabganj"
    },
    {
      "id": "44",
      "name_english": "Chapainawabganj-2",
      "name": "চাঁপাইনবাবগঞ্জ -২",
      "total_population": 580659,
      "registered_voters": 377051,
      "urban_classification": "rural",
      "lat": 24.72999954223633,
      "long": 88.37999725341797,
      "division_id": "5",
      "division_english": "Rajshahi",
      "district_id": "22",
      "district_english": "Nawabganj"
    },
    {
      "id": "45",
      "name_english": "Chapainawabganj-3",
      "name": "চাঁপাইনবাবগঞ্জ -৩",
      "total_population": 589173,
      "registered_voters": 382580,
      "urban_classification": "rural",
      "lat": 24.60000038146973,
      "long": 88.27999877929688,
      "division_id": "5",
      "division_english": "Rajshahi",
      "district_id": "22",
      "district_english": "Nawabganj"
    },
    {
      "id": "46",
      "name_english": "Naogaon-1",
      "name": "নওগাঁ-১",
      "total_population": 0,
      "registered_voters": 0,
      "urban_classification": "rural",
      "lat": 0,
      "long": 0,
      "division_id": "5",
      "division_english": "Rajshahi",
      "district_id": "20",
      "district_english": "Naogaon"
    },
    {
      "id": "47",
      "name_english": "Naogaon-2",
      "name": "নওগাঁ-২",
      "total_population": 496020,
      "registered_voters": 322091,
      "urban_classification": "rural",
      "lat": 25.04999923706055,
      "long": 88.76000213623047,
      "division_id": "5",
      "division_english": "Rajshahi",
      "district_id": "20",
      "district_english": "Naogaon"
    },
    {
      "id": "48",
      "name_english": "Naogaon-3",
      "name": "নওগাঁ -৩",
      "total_population": 589105,
      "registered_voters": 382536,
      "urban_classification": "rural",
      "lat": 24.92000007629395,
      "long": 88.75,
      "division_id": "5",
      "division_english": "Rajshahi",
      "district_id": "20",
      "district_english": "Naogaon"
    },
    {
      "id": "49",
      "name_english": "Naogaon-4",
      "name": "নওগাঁ -৪",
      "total_population": 445408,
      "registered_voters": 289226,
      "urban_classification": "rural",
      "lat": 24.78000068664551,
      "long": 88.69999694824219,
      "division_id": "5",
      "division_english": "Rajshahi",
      "district_id": "20",
      "district_english": "Naogaon"
    },
    {
      "id": "50",
      "name_english": "Naogaon-5",
      "name": "নওগাঁ -৫",
      "total_population": 445411,
      "registered_voters": 289228,
      "urban_classification": "rural",
      "lat": 24.82999992370605,
      "long": 88.93000030517578,
      "division_id": "5",
      "division_english": "Rajshahi",
      "district_id": "20",
      "district_english": "Naogaon"
    },
    {
      "id": "51",
      "name_english": "Naogaon-6",
      "name": "নওগাঁ -৬",
      "total_population": 453519,
      "registered_voters": 294493,
      "urban_classification": "rural",
      "lat": 24.73999977111816,
      "long": 88.95999908447266,
      "division_id": "5",
      "division_english": "Rajshahi",
      "district_id": "20",
      "district_english": "Naogaon"
    },
    {
      "id": "52",
      "name_english": "Rajshahi-1",
      "name": "রাজশাহী -১",
      "total_population": 590362,
      "registered_voters": 383352,
      "urban_classification": "rural",
      "lat": 24.46999931335449,
      "long": 88.31999969482422,
      "division_id": "5",
      "division_english": "Rajshahi",
      "district_id": "24",
      "district_english": "Rajshahi"
    },
    {
      "id": "53",
      "name_english": "Rajshahi-2",
      "name": "রাজশাহী -২",
      "total_population": 489492,
      "registered_voters": 317852,
      "urban_classification": "urban",
      "lat": 24.3700008392334,
      "long": 88.5999984741211,
      "division_id": "5",
      "division_english": "Rajshahi",
      "district_id": "24",
      "district_english": "Rajshahi"
    },
    {
      "id": "54",
      "name_english": "Rajshahi-3",
      "name": "রাজশাহী -৩",
      "total_population": 550358,
      "registered_voters": 357375,
      "urban_classification": "rural",
      "lat": 24.45999908447266,
      "long": 88.61000061035156,
      "division_id": "5",
      "division_english": "Rajshahi",
      "district_id": "24",
      "district_english": "Rajshahi"
    },
    {
      "id": "55",
      "name_english": "Rajshahi-4",
      "name": "রাজশাহী -৪",
      "total_population": 471782,
      "registered_voters": 306352,
      "urban_classification": "rural",
      "lat": 0,
      "long": 0,
      "division_id": "5",
      "division_english": "Rajshahi",
      "district_id": "24",
      "district_english": "Rajshahi"
    },
    {
      "id": "56",
      "name_english": "Rajshahi-5",
      "name": "রাজশাহী -৫",
      "total_population": 464583,
      "registered_voters": 301677,
      "urban_classification": "rural",
      "lat": 24.3700008392334,
      "long": 88.83999633789062,
      "division_id": "5",
      "division_english": "Rajshahi",
      "district_id": "24",
      "district_english": "Rajshahi"
    },
    {
      "id": "57",
      "name_english": "Rajshahi-6",
      "name": "রাজশাহী -৬",
      "total_population": 468619,
      "registered_voters": 304298,
      "urban_classification": "rural",
      "lat": 24.29000091552734,
      "long": 88.75,
      "division_id": "5",
      "division_english": "Rajshahi",
      "district_id": "24",
      "district_english": "Rajshahi"
    },
    {
      "id": "58",
      "name_english": "Natore-1",
      "name": "নাটোর -১",
      "total_population": 480365,
      "registered_voters": 311925,
      "urban_classification": "rural",
      "lat": 24.18000030517578,
      "long": 88.95999908447266,
      "division_id": "5",
      "division_english": "Rajshahi",
      "district_id": "21",
      "district_english": "Natore"
    },
    {
      "id": "59",
      "name_english": "Natore-2",
      "name": "নাটোর -২",
      "total_population": 529738,
      "registered_voters": 343986,
      "urban_classification": "rural",
      "lat": 24.42000007629395,
      "long": 89,
      "division_id": "5",
      "division_english": "Rajshahi",
      "district_id": "21",
      "district_english": "Natore"
    },
    {
      "id": "60",
      "name_english": "Natore-3",
      "name": "নাটোর -৩",
      "total_population": 425314,
      "registered_voters": 276178,
      "urban_classification": "rural",
      "lat": 24.5,
      "long": 89.1500015258789,
      "division_id": "5",
      "division_english": "Rajshahi",
      "district_id": "21",
      "district_english": "Natore"
    },
    {
      "id": "61",
      "name_english": "Natore-4",
      "name": "নাটোর -৪",
      "total_population": 572554,
      "registered_voters": 371788,
      "urban_classification": "rural",
      "lat": 24.30999946594238,
      "long": 89.16999816894531,
      "division_id": "5",
      "division_english": "Rajshahi",
      "district_id": "21",
      "district_english": "Natore"
    },
    {
      "id": "62",
      "name_english": "Sirajganj-1",
      "name": "সিরাজগঞ্জ -১",
      "total_population": 532229,
      "registered_voters": 345603,
      "urban_classification": "rural",
      "lat": 24.64999961853027,
      "long": 89.63999938964844,
      "division_id": "5",
      "division_english": "Rajshahi",
      "district_id": "25",
      "district_english": "Sirajgonj"
    },
    {
      "id": "63",
      "name_english": "Sirajganj-2",
      "name": "সিরাজগঞ্জ -২",
      "total_population": 540726,
      "registered_voters": 351121,
      "urban_classification": "urban",
      "lat": 24.45000076293945,
      "long": 89.69999694824219,
      "division_id": "5",
      "division_english": "Rajshahi",
      "district_id": "25",
      "district_english": "Sirajgonj"
    },
    {
      "id": "64",
      "name_english": "Sirajganj-3",
      "name": "সিরাজগঞ্জ-৩",
      "total_population": 566025,
      "registered_voters": 367549,
      "urban_classification": "rural",
      "lat": 24.51000022888184,
      "long": 89.52999877929688,
      "division_id": "5",
      "division_english": "Rajshahi",
      "district_id": "25",
      "district_english": "Sirajgonj"
    },
    {
      "id": "65",
      "name_english": "Sirajganj-4",
      "name": "সিরাজগঞ্জ-৪",
      "total_population": 602316,
      "registered_voters": 391114,
      "urban_classification": "rural",
      "lat": 0,
      "long": 0,
      "division_id": "5",
      "division_english": "Rajshahi",
      "district_id": "25",
      "district_english": "Sirajgonj"
    },
    {
      "id": "66",
      "name_english": "Sirajganj-5",
      "name": "সিরাজগঞ্জ -৫",
      "total_population": 523455,
      "registered_voters": 339906,
      "urban_classification": "rural",
      "lat": 24.29999923706055,
      "long": 89.69999694824219,
      "division_id": "5",
      "division_english": "Rajshahi",
      "district_id": "25",
      "district_english": "Sirajgonj"
    },
    {
      "id": "67",
      "name_english": "Sirajganj-6",
      "name": "সিরাজগঞ্জ -৬",
      "total_population": 617779,
      "registered_voters": 401155,
      "urban_classification": "rural",
      "lat": 0,
      "long": 0,
      "division_id": "5",
      "division_english": "Rajshahi",
      "district_id": "25",
      "district_english": "Sirajgonj"
    },
    {
      "id": "68",
      "name_english": "Pabna-1",
      "name": "পাবনা -১",
      "total_population": 581667,
      "registered_voters": 377706,
      "urban_classification": "rural",
      "lat": 24.04999923706055,
      "long": 89.55000305175781,
      "division_id": "5",
      "division_english": "Rajshahi",
      "district_id": "23",
      "district_english": "Pabna"
    },
    {
      "id": "69",
      "name_english": "Pabna-2",
      "name": "পাবনা -২",
      "total_population": 463215,
      "registered_voters": 300789,
      "urban_classification": "rural",
      "lat": 23.94000053405762,
      "long": 89.41000366210938,
      "division_id": "5",
      "division_english": "Rajshahi",
      "district_id": "23",
      "district_english": "Pabna"
    },
    {
      "id": "70",
      "name_english": "Pabna-3",
      "name": "পাবনা-৩",
      "total_population": 620367,
      "registered_voters": 402836,
      "urban_classification": "rural",
      "lat": 24.22999954223633,
      "long": 89.29000091552734,
      "division_id": "5",
      "division_english": "Rajshahi",
      "district_id": "23",
      "district_english": "Pabna"
    },
    {
      "id": "71",
      "name_english": "Pabna-4",
      "name": "পাবনা-৪",
      "total_population": 558224,
      "registered_voters": 362483,
      "urban_classification": "rural",
      "lat": 24.1200008392334,
      "long": 89.05999755859375,
      "division_id": "5",
      "division_english": "Rajshahi",
      "district_id": "23",
      "district_english": "Pabna"
    },
    {
      "id": "72",
      "name_english": "Pabna-5",
      "name": "পাবনা-৫",
      "total_population": 671289,
      "registered_voters": 435902,
      "urban_classification": "rural",
      "lat": 24,
      "long": 89.2300033569336,
      "division_id": "5",
      "division_english": "Rajshahi",
      "district_id": "23",
      "district_english": "Pabna"
    },
    {
      "id": "73",
      "name_english": "Meherpur-1",
      "name": "মেহেরপুর -১",
      "total_population": 415192,
      "registered_voters": 269605,
      "urban_classification": "rural",
      "lat": 23.76000022888184,
      "long": 88.62999725341797,
      "division_id": "4",
      "division_english": "Khulna",
      "district_id": "62",
      "district_english": "Meherpur"
    },
    {
      "id": "74",
      "name_english": "Meherpur-2",
      "name": "মেহেরপুর -২",
      "total_population": 348484,
      "registered_voters": 226288,
      "urban_classification": "rural",
      "lat": 23.80999946594238,
      "long": 88.76000213623047,
      "division_id": "4",
      "division_english": "Khulna",
      "district_id": "62",
      "district_english": "Meherpur"
    },
    {
      "id": "75",
      "name_english": "Kushtia-1",
      "name": "কুষ্টিয়া -১",
      "total_population": 517623,
      "registered_voters": 336119,
      "urban_classification": "rural",
      "lat": 24,
      "long": 88.87999725341797,
      "division_id": "4",
      "division_english": "Khulna",
      "district_id": "60",
      "district_english": "Kushtia"
    },
    {
      "id": "76",
      "name_english": "Kushtia-2",
      "name": "কুষ্টিয়া -২",
      "total_population": 615518,
      "registered_voters": 399687,
      "urban_classification": "rural",
      "lat": 23.94000053405762,
      "long": 89,
      "division_id": "4",
      "division_english": "Khulna",
      "district_id": "60",
      "district_english": "Kushtia"
    },
    {
      "id": "77",
      "name_english": "Kushtia-3",
      "name": "কুষ্টিয়া -৩",
      "total_population": 574186,
      "registered_voters": 372848,
      "urban_classification": "rural",
      "lat": 23.90999984741211,
      "long": 89.12000274658203,
      "division_id": "4",
      "division_english": "Khulna",
      "district_id": "60",
      "district_english": "Kushtia"
    },
    {
      "id": "78",
      "name_english": "Kushtia-4",
      "name": "কুষ্টিয়া -৪",
      "total_population": 540900,
      "registered_voters": 351234,
      "urban_classification": "rural",
      "lat": 23.86000061035156,
      "long": 89.23999786376953,
      "division_id": "4",
      "division_english": "Khulna",
      "district_id": "60",
      "district_english": "Kushtia"
    },
    {
      "id": "79",
      "name_english": "Chuadanga-1",
      "name": "চুয়াডাঙ্গা -১",
      "total_population": 674281,
      "registered_voters": 437845,
      "urban_classification": "rural",
      "lat": 23.63999938964844,
      "long": 88.8499984741211,
      "division_id": "4",
      "division_english": "Khulna",
      "district_id": "56",
      "district_english": "Chuadanga"
    },
    {
      "id": "80",
      "name_english": "Chuadanga-2",
      "name": "চুয়াডাঙ্গা -২",
      "total_population": 639142,
      "registered_voters": 415027,
      "urban_classification": "rural",
      "lat": 23.60000038146973,
      "long": 88.77999877929688,
      "division_id": "4",
      "division_english": "Khulna",
      "district_id": "56",
      "district_english": "Chuadanga"
    },
    {
      "id": "81",
      "name_english": "Jhenaidah-1",
      "name": "ঝিনাইদহ -১",
      "total_population": 425554,
      "registered_voters": 276334,
      "urban_classification": "rural",
      "lat": 23.68490028381348,
      "long": 89.25029754638672,
      "division_id": "4",
      "division_english": "Khulna",
      "district_id": "58",
      "district_english": "Jhenaidah"
    },
    {
      "id": "82",
      "name_english": "Jhenaidah-2",
      "name": "ঝিনাইদহ -২",
      "total_population": 652275,
      "registered_voters": 423555,
      "urban_classification": "rural",
      "lat": 23.54000091552734,
      "long": 89.18000030517578,
      "division_id": "4",
      "division_english": "Khulna",
      "district_id": "58",
      "district_english": "Jhenaidah"
    },
    {
      "id": "83",
      "name_english": "Jhenaidah-3",
      "name": "ঝিনাইদহ-৩",
      "total_population": 555817,
      "registered_voters": 360920,
      "urban_classification": "rural",
      "lat": 23.36000061035156,
      "long": 88.91999816894531,
      "division_id": "4",
      "division_english": "Khulna",
      "district_id": "58",
      "district_english": "Jhenaidah"
    },
    {
      "id": "84",
      "name_english": "Jhenaidah-4",
      "name": "ঝিনাইদহ -৪",
      "total_population": 433696,
      "registered_voters": 281621,
      "urban_classification": "rural",
      "lat": 23.42000007629395,
      "long": 89.13999938964844,
      "division_id": "4",
      "division_english": "Khulna",
      "district_id": "58",
      "district_english": "Jhenaidah"
    },
    {
      "id": "85",
      "name_english": "Jessore-1",
      "name": "যশোর -১",
      "total_population": 405790,
      "registered_voters": 263500,
      "urban_classification": "rural",
      "lat": 23.04999923706055,
      "long": 88.94999694824219,
      "division_id": "4",
      "division_english": "Khulna",
      "district_id": "57",
      "district_english": "Jashore"
    },
    {
      "id": "86",
      "name_english": "Jessore-2",
      "name": "যশোর-২",
      "total_population": 625041,
      "registered_voters": 405871,
      "urban_classification": "rural",
      "lat": 23.10580062866211,
      "long": 89.10379791259766,
      "division_id": "4",
      "division_english": "Khulna",
      "district_id": "57",
      "district_english": "Jashore"
    },
    {
      "id": "87",
      "name_english": "Jessore-3",
      "name": "যশোর -৩",
      "total_population": 805944,
      "registered_voters": 523340,
      "urban_classification": "rural",
      "lat": 23.15999984741211,
      "long": 89.20999908447266,
      "division_id": "4",
      "division_english": "Khulna",
      "district_id": "57",
      "district_english": "Jashore"
    },
    {
      "id": "88",
      "name_english": "Jessore-4",
      "name": "যশোর -৪",
      "total_population": 595814,
      "registered_voters": 386892,
      "urban_classification": "rural",
      "lat": 23.21999931335449,
      "long": 89.3499984741211,
      "division_id": "4",
      "division_english": "Khulna",
      "district_id": "57",
      "district_english": "Jashore"
    },
    {
      "id": "89",
      "name_english": "Jessore-5",
      "name": "যশোর -৫",
      "total_population": 491389,
      "registered_voters": 319084,
      "urban_classification": "rural",
      "lat": 23.02000045776367,
      "long": 89.2300033569336,
      "division_id": "4",
      "division_english": "Khulna",
      "district_id": "57",
      "district_english": "Jashore"
    },
    {
      "id": "90",
      "name_english": "Jessore-6",
      "name": "যশোর -৬",
      "total_population": 298098,
      "registered_voters": 193570,
      "urban_classification": "rural",
      "lat": 22.90999984741211,
      "long": 89.22000122070312,
      "division_id": "4",
      "division_english": "Khulna",
      "district_id": "57",
      "district_english": "Jashore"
    },
    {
      "id": "91",
      "name_english": "Magura-1",
      "name": "মাগুরা -১",
      "total_population": 616747,
      "registered_voters": 400485,
      "urban_classification": "rural",
      "lat": 23.48999977111816,
      "long": 89.41999816894531,
      "division_id": "4",
      "division_english": "Khulna",
      "district_id": "61",
      "district_english": "Magura"
    },
    {
      "id": "92",
      "name_english": "Magura-2",
      "name": "মাগুরা -২",
      "total_population": 515828,
      "registered_voters": 334953,
      "urban_classification": "rural",
      "lat": 23.48999977111816,
      "long": 89.41999816894531,
      "division_id": "4",
      "division_english": "Khulna",
      "district_id": "61",
      "district_english": "Magura"
    },
    {
      "id": "93",
      "name_english": "Narail-1",
      "name": "নড়াইল -১",
      "total_population": 366788,
      "registered_voters": 238174,
      "urban_classification": "rural",
      "lat": 23.04000091552734,
      "long": 89.62999725341797,
      "division_id": "4",
      "division_english": "Khulna",
      "district_id": "63",
      "district_english": "Narail"
    },
    {
      "id": "94",
      "name_english": "Narail-2",
      "name": "নড়াইল -২",
      "total_population": 489480,
      "registered_voters": 317844,
      "urban_classification": "rural",
      "lat": 23.18000030517578,
      "long": 89.6500015258789,
      "division_id": "4",
      "division_english": "Khulna",
      "district_id": "63",
      "district_english": "Narail"
    },
    {
      "id": "95",
      "name_english": "Bagerhat-1",
      "name": "বাগেরহাট -১",
      "total_population": 465585,
      "registered_voters": 302328,
      "urban_classification": "rural",
      "lat": 22.78000068664551,
      "long": 89.69999694824219,
      "division_id": "4",
      "division_english": "Khulna",
      "district_id": "55",
      "district_english": "Bagerhat"
    },
    {
      "id": "96",
      "name_english": "Bagerhat-2",
      "name": "বাগেরহাট -২",
      "total_population": 437508,
      "registered_voters": 284096,
      "urban_classification": "rural",
      "lat": 22.65999984741211,
      "long": 89.7699966430664,
      "division_id": "4",
      "division_english": "Khulna",
      "district_id": "55",
      "district_english": "Bagerhat"
    },
    {
      "id": "97",
      "name_english": "Bagerhat-3",
      "name": "বাগেরহাট-৩",
      "total_population": 348339,
      "registered_voters": 226194,
      "urban_classification": "rural",
      "lat": 22.55999946594238,
      "long": 89.6500015258789,
      "division_id": "4",
      "division_english": "Khulna",
      "district_id": "55",
      "district_english": "Bagerhat"
    },
    {
      "id": "98",
      "name_english": "Khulna-1",
      "name": "খুলনা -১",
      "total_population": 399507,
      "registered_voters": 259420,
      "urban_classification": "rural",
      "lat": 22.73999977111816,
      "long": 89.5199966430664,
      "division_id": "4",
      "division_english": "Khulna",
      "district_id": "59",
      "district_english": "Khulna"
    },
    {
      "id": "99",
      "name_english": "Khulna-2",
      "name": "খুলনা -২",
      "total_population": 452939,
      "registered_voters": 294116,
      "urban_classification": "urban",
      "lat": 22.81999969482422,
      "long": 89.55999755859375,
      "division_id": "4",
      "division_english": "Khulna",
      "district_id": "59",
      "district_english": "Khulna"
    },
    {
      "id": "100",
      "name_english": "Khulna-3",
      "name": "খুলনা -৩",
      "total_population": 348473,
      "registered_voters": 226281,
      "urban_classification": "urban",
      "lat": 22.85000038146973,
      "long": 89.54000091552734,
      "division_id": "4",
      "division_english": "Khulna",
      "district_id": "59",
      "district_english": "Khulna"
    },
    {
      "id": "101",
      "name_english": "Khulna-4",
      "name": "খুলনা -৪",
      "total_population": 478133,
      "registered_voters": 310476,
      "urban_classification": "rural",
      "lat": 22.79999923706055,
      "long": 89.63999938964844,
      "division_id": "4",
      "division_english": "Khulna",
      "district_id": "59",
      "district_english": "Khulna"
    },
    {
      "id": "102",
      "name_english": "Khulna-5",
      "name": "খুলনা -৫",
      "total_population": 530484,
      "registered_voters": 344470,
      "urban_classification": "rural",
      "lat": 22.80999946594238,
      "long": 89.41999816894531,
      "division_id": "4",
      "division_english": "Khulna",
      "district_id": "59",
      "district_english": "Khulna"
    },
    {
      "id": "103",
      "name_english": "Khulna-6",
      "name": "খুলনা -৬",
      "total_population": 564008,
      "registered_voters": 366239,
      "urban_classification": "rural",
      "lat": 22.59000015258789,
      "long": 89.31999969482422,
      "division_id": "4",
      "division_english": "Khulna",
      "district_id": "59",
      "district_english": "Khulna"
    },
    {
      "id": "104",
      "name_english": "Satkhira-1",
      "name": "সাতক্ষীরা -১",
      "total_population": 651532,
      "registered_voters": 423073,
      "urban_classification": "rural",
      "lat": 22.75,
      "long": 89.26000213623047,
      "division_id": "4",
      "division_english": "Khulna",
      "district_id": "64",
      "district_english": "Satkhira"
    },
    {
      "id": "105",
      "name_english": "Satkhira-2",
      "name": "সাতক্ষীরা -২",
      "total_population": 548619,
      "registered_voters": 356246,
      "urban_classification": "rural",
      "lat": 22.71999931335449,
      "long": 89.06999969482422,
      "division_id": "4",
      "division_english": "Khulna",
      "district_id": "64",
      "district_english": "Satkhira"
    },
    {
      "id": "106",
      "name_english": "Satkhira-3",
      "name": "সাতক্ষীরা -৩",
      "total_population": 596499,
      "registered_voters": 387337,
      "urban_classification": "rural",
      "lat": 22.54999923706055,
      "long": 89.18000030517578,
      "division_id": "4",
      "division_english": "Khulna",
      "district_id": "64",
      "district_english": "Satkhira"
    },
    {
      "id": "107",
      "name_english": "Satkhira-4",
      "name": "সাতক্ষীরা -৪",
      "total_population": 606401,
      "registered_voters": 393767,
      "urban_classification": "rural",
      "lat": 22.34000015258789,
      "long": 89.0999984741211,
      "division_id": "4",
      "division_english": "Khulna",
      "district_id": "64",
      "district_english": "Satkhira"
    },
    {
      "id": "108",
      "name_english": "Barguna-1",
      "name": "বরগুনা -১",
      "total_population": 638179,
      "registered_voters": 414402,
      "urban_classification": "rural",
      "lat": 22.13999938964844,
      "long": 90.2300033569336,
      "division_id": "1",
      "division_english": "Barishal",
      "district_id": "34",
      "district_english": "Barguna"
    },
    {
      "id": "109",
      "name_english": "Barguna-2",
      "name": "বরগুনা -২",
      "total_population": 413284,
      "registered_voters": 268366,
      "urban_classification": "rural",
      "lat": 22.04000091552734,
      "long": 89.97000122070312,
      "division_id": "1",
      "division_english": "Barishal",
      "district_id": "34",
      "district_english": "Barguna"
    },
    {
      "id": "110",
      "name_english": "Patuakhali-1",
      "name": "পটুয়াখালী -১",
      "total_population": 605950,
      "registered_voters": 393474,
      "urban_classification": "rural",
      "lat": 22.36000061035156,
      "long": 90.33000183105469,
      "division_id": "1",
      "division_english": "Barishal",
      "district_id": "38",
      "district_english": "Patuakhali"
    },
    {
      "id": "111",
      "name_english": "Patuakhali-2",
      "name": "পটুয়াখালী -২",
      "total_population": 387884,
      "registered_voters": 251873,
      "urban_classification": "rural",
      "lat": 22.40999984741211,
      "long": 90.55999755859375,
      "division_id": "1",
      "division_english": "Barishal",
      "district_id": "38",
      "district_english": "Patuakhali"
    },
    {
      "id": "112",
      "name_english": "Patuakhali-3",
      "name": "পটুয়াখালী -৩",
      "total_population": 459960,
      "registered_voters": 298675,
      "urban_classification": "rural",
      "lat": 22.17000007629395,
      "long": 90.41000366210938,
      "division_id": "1",
      "division_english": "Barishal",
      "district_id": "38",
      "district_english": "Patuakhali"
    },
    {
      "id": "113",
      "name_english": "Patuakhali-4",
      "name": "পটুয়াখালী -৪",
      "total_population": 383514,
      "registered_voters": 249035,
      "urban_classification": "rural",
      "lat": 21.98999977111816,
      "long": 90.22000122070312,
      "division_id": "1",
      "division_english": "Barishal",
      "district_id": "38",
      "district_english": "Patuakhali"
    },
    {
      "id": "114",
      "name_english": "Bhola-1",
      "name": "ভোলা -১",
      "total_population": 477474,
      "registered_voters": 310048,
      "urban_classification": "rural",
      "lat": 22.69000053405762,
      "long": 90.6500015258789,
      "division_id": "1",
      "division_english": "Barishal",
      "district_id": "36",
      "district_english": "Bhola"
    },
    {
      "id": "115",
      "name_english": "Bhola-2",
      "name": "ভোলা -২",
      "total_population": 457720,
      "registered_voters": 297221,
      "urban_classification": "rural",
      "lat": 22.5,
      "long": 90.72000122070312,
      "division_id": "1",
      "division_english": "Barishal",
      "district_id": "36",
      "district_english": "Bhola"
    },
    {
      "id": "116",
      "name_english": "Bhola-3",
      "name": "ভোলা -৩",
      "total_population": 452150,
      "registered_voters": 293604,
      "urban_classification": "rural",
      "lat": 22.32999992370605,
      "long": 90.7300033569336,
      "division_id": "1",
      "division_english": "Barishal",
      "district_id": "36",
      "district_english": "Bhola"
    },
    {
      "id": "117",
      "name_english": "Bhola-4",
      "name": "ভোলা -৪",
      "total_population": 574340,
      "registered_voters": 372948,
      "urban_classification": "rural",
      "lat": 22.19000053405762,
      "long": 90.76000213623047,
      "division_id": "1",
      "division_english": "Barishal",
      "district_id": "36",
      "district_english": "Bhola"
    },
    {
      "id": "118",
      "name_english": "Barishal-1",
      "name": "বরিশাল -১",
      "total_population": 397372,
      "registered_voters": 258034,
      "urban_classification": "rural",
      "lat": 22.96999931335449,
      "long": 90.2300033569336,
      "division_id": "1",
      "division_english": "Barishal",
      "district_id": "35",
      "district_english": "Barishal"
    },
    {
      "id": "119",
      "name_english": "Barishal-2",
      "name": "বরিশাল -২",
      "total_population": 466072,
      "registered_voters": 302644,
      "urban_classification": "rural",
      "lat": 22.81999969482422,
      "long": 90.25,
      "division_id": "1",
      "division_english": "Barishal",
      "district_id": "35",
      "district_english": "Barishal"
    },
    {
      "id": "120",
      "name_english": "Barishal-3",
      "name": "বরিশাল -৩",
      "total_population": 391197,
      "registered_voters": 254024,
      "urban_classification": "rural",
      "lat": 22.90999984741211,
      "long": 90.41000366210938,
      "division_id": "1",
      "division_english": "Barishal",
      "district_id": "35",
      "district_english": "Barishal"
    },
    {
      "id": "121",
      "name_english": "Barishal-4",
      "name": "বরিশাল -৪",
      "total_population": 498302,
      "registered_voters": 323573,
      "urban_classification": "rural",
      "lat": 22.82999992370605,
      "long": 90.52999877929688,
      "division_id": "1",
      "division_english": "Barishal",
      "district_id": "35",
      "district_english": "Barishal"
    },
    {
      "id": "122",
      "name_english": "Barishal-5",
      "name": "বরিশাল -৫",
      "total_population": 612172,
      "registered_voters": 397514,
      "urban_classification": "urban",
      "lat": 22.70000076293945,
      "long": 90.37000274658203,
      "division_id": "1",
      "division_english": "Barishal",
      "district_id": "35",
      "district_english": "Barishal"
    },
    {
      "id": "123",
      "name_english": "Barishal-6",
      "name": "বরিশাল -৬",
      "total_population": 92400,
      "registered_voters": 60000,
      "urban_classification": "rural",
      "lat": 22.54000091552734,
      "long": 90.33999633789062,
      "division_id": "1",
      "division_english": "Barishal",
      "district_id": "35",
      "district_english": "Barishal"
    },
    {
      "id": "124",
      "name_english": "Jhalokathi-1",
      "name": "ঝালকাঠি -১",
      "total_population": 275488,
      "registered_voters": 178888,
      "urban_classification": "rural",
      "lat": 22.56999969482422,
      "long": 90.13999938964844,
      "division_id": "1",
      "division_english": "Barishal",
      "district_id": "37",
      "district_english": "Jhalokati"
    },
    {
      "id": "125",
      "name_english": "Jhalokathi-2",
      "name": "ঝালকাঠি -২",
      "total_population": 447222,
      "registered_voters": 290404,
      "urban_classification": "rural",
      "lat": 22.63999938964844,
      "long": 90.19999694824219,
      "division_id": "1",
      "division_english": "Barishal",
      "district_id": "37",
      "district_english": "Jhalokati"
    },
    {
      "id": "126",
      "name_english": "Pirojpur-1",
      "name": "পিরোজপুর -১",
      "total_population": 645423,
      "registered_voters": 419106,
      "urban_classification": "rural",
      "lat": 22.57999992370605,
      "long": 89.9800033569336,
      "division_id": "1",
      "division_english": "Barishal",
      "district_id": "39",
      "district_english": "Pirojpur"
    },
    {
      "id": "127",
      "name_english": "Pirojpur-2",
      "name": "পিরোজপুর -২",
      "total_population": 339624,
      "registered_voters": 220535,
      "urban_classification": "rural",
      "lat": 22.48999977111816,
      "long": 90.05999755859375,
      "division_id": "1",
      "division_english": "Barishal",
      "district_id": "39",
      "district_english": "Pirojpur"
    },
    {
      "id": "128",
      "name_english": "Pirojpur-3",
      "name": "পিরোজপুর -৩",
      "total_population": 292387,
      "registered_voters": 189862,
      "urban_classification": "rural",
      "lat": 22.29000091552734,
      "long": 89.95999908447266,
      "division_id": "1",
      "division_english": "Barishal",
      "district_id": "39",
      "district_english": "Pirojpur"
    },
    {
      "id": "129",
      "name_english": "Tangail-1",
      "name": "টাঙ্গাইল -১",
      "total_population": 562086,
      "registered_voters": 364991,
      "urban_classification": "rural",
      "lat": 24.60000038146973,
      "long": 90.02999877929688,
      "division_id": "3",
      "division_english": "Dhaka",
      "district_id": "17",
      "district_english": "Tangail"
    },
    {
      "id": "130",
      "name_english": "Tangail-2",
      "name": "টাঙ্গাইল -২",
      "total_population": 536952,
      "registered_voters": 348670,
      "urban_classification": "rural",
      "lat": 24.54999923706055,
      "long": 89.93000030517578,
      "division_id": "3",
      "division_english": "Dhaka",
      "district_id": "17",
      "district_english": "Tangail"
    },
    {
      "id": "131",
      "name_english": "Tangail-3",
      "name": "টাঙ্গাইল -৩",
      "total_population": 490561,
      "registered_voters": 318546,
      "urban_classification": "rural",
      "lat": 24.47999954223633,
      "long": 89.97000122070312,
      "division_id": "3",
      "division_english": "Dhaka",
      "district_id": "17",
      "district_english": "Tangail"
    },
    {
      "id": "132",
      "name_english": "Tangail-4",
      "name": "টাঙ্গাইল -৪",
      "total_population": 479076,
      "registered_voters": 311088,
      "urban_classification": "rural",
      "lat": 24.3799991607666,
      "long": 89.98999786376953,
      "division_id": "3",
      "division_english": "Dhaka",
      "district_id": "17",
      "district_english": "Tangail"
    },
    {
      "id": "133",
      "name_english": "Tangail-5",
      "name": "টাঙ্গাইল -৫",
      "total_population": 585721,
      "registered_voters": 380338,
      "urban_classification": "rural",
      "lat": 24.25,
      "long": 89.91999816894531,
      "division_id": "3",
      "division_english": "Dhaka",
      "district_id": "17",
      "district_english": "Tangail"
    },
    {
      "id": "134",
      "name_english": "Tangail-6",
      "name": "টাঙ্গাইল -৬",
      "total_population": 601287,
      "registered_voters": 390446,
      "urban_classification": "rural",
      "lat": 24.05999946594238,
      "long": 89.87999725341797,
      "division_id": "3",
      "division_english": "Dhaka",
      "district_id": "17",
      "district_english": "Tangail"
    },
    {
      "id": "135",
      "name_english": "Tangail-7",
      "name": "টাঙ্গাইল -৭",
      "total_population": 496916,
      "registered_voters": 322673,
      "urban_classification": "rural",
      "lat": 24.10000038146973,
      "long": 90.0999984741211,
      "division_id": "3",
      "division_english": "Dhaka",
      "district_id": "17",
      "district_english": "Tangail"
    },
    {
      "id": "136",
      "name_english": "Tangail-8",
      "name": "টাঙ্গাইল -৮",
      "total_population": 533835,
      "registered_voters": 346646,
      "urban_classification": "rural",
      "lat": 24.31999969482422,
      "long": 90.16999816894531,
      "division_id": "3",
      "division_english": "Dhaka",
      "district_id": "17",
      "district_english": "Tangail"
    },
    {
      "id": "137",
      "name_english": "Jamalpur-1",
      "name": "জামালপুর -১",
      "total_population": 533280,
      "registered_voters": 346286,
      "urban_classification": "rural",
      "lat": 25.15999984741211,
      "long": 89.76000213623047,
      "division_id": "8",
      "division_english": "Mymensingh",
      "district_id": "5",
      "district_english": "Jamalpur"
    },
    {
      "id": "138",
      "name_english": "Jamalpur-2",
      "name": "জামালপুর -২",
      "total_population": 340626,
      "registered_voters": 221186,
      "urban_classification": "rural",
      "lat": 25.07999992370605,
      "long": 89.79000091552734,
      "division_id": "8",
      "division_english": "Mymensingh",
      "district_id": "5",
      "district_english": "Jamalpur"
    },
    {
      "id": "139",
      "name_english": "Jamalpur-3",
      "name": "জামালপুর -৩",
      "total_population": 772801,
      "registered_voters": 501819,
      "urban_classification": "rural",
      "lat": 24.97999954223633,
      "long": 89.83000183105469,
      "division_id": "8",
      "division_english": "Mymensingh",
      "district_id": "5",
      "district_english": "Jamalpur"
    },
    {
      "id": "140",
      "name_english": "Jamalpur-4",
      "name": "জামালপুর -৪",
      "total_population": 389232,
      "registered_voters": 252748,
      "urban_classification": "rural",
      "lat": 24.75,
      "long": 89.83999633789062,
      "division_id": "8",
      "division_english": "Mymensingh",
      "district_id": "5",
      "district_english": "Jamalpur"
    },
    {
      "id": "141",
      "name_english": "Jamalpur-5",
      "name": "জামালপুর -৫",
      "total_population": 723694,
      "registered_voters": 469931,
      "urban_classification": "rural",
      "lat": 24.93000030517578,
      "long": 89.94000244140625,
      "division_id": "8",
      "division_english": "Mymensingh",
      "district_id": "5",
      "district_english": "Jamalpur"
    },
    {
      "id": "142",
      "name_english": "Sherpur-1",
      "name": "শেরপুর -১",
      "total_population": 652443,
      "registered_voters": 423664,
      "urban_classification": "rural",
      "lat": 25.01000022888184,
      "long": 90.0199966430664,
      "division_id": "8",
      "division_english": "Mymensingh",
      "district_id": "16",
      "district_english": "Sherpur"
    },
    {
      "id": "143",
      "name_english": "Sherpur-2",
      "name": "শেরপুর -২",
      "total_population": 634010,
      "registered_voters": 411695,
      "urban_classification": "rural",
      "lat": 25.09000015258789,
      "long": 90.19000244140625,
      "division_id": "8",
      "division_english": "Mymensingh",
      "district_id": "16",
      "district_english": "Sherpur"
    },
    {
      "id": "144",
      "name_english": "Sherpur-3",
      "name": "শেরপুর -৩",
      "total_population": 501301,
      "registered_voters": 325520,
      "urban_classification": "rural",
      "lat": 25.14999961853027,
      "long": 89.94000244140625,
      "division_id": "8",
      "division_english": "Mymensingh",
      "district_id": "16",
      "district_english": "Sherpur"
    },
    {
      "id": "145",
      "name_english": "Mymensingh-1",
      "name": "ময়মনসিংহ -১",
      "total_population": 581036,
      "registered_voters": 377296,
      "urban_classification": "rural",
      "lat": 25.1200008392334,
      "long": 90.33999633789062,
      "division_id": "8",
      "division_english": "Mymensingh",
      "district_id": "10",
      "district_english": "Mymensingh"
    },
    {
      "id": "146",
      "name_english": "Mymensingh-2",
      "name": "ময়মনসিংহ -২",
      "total_population": 694083,
      "registered_voters": 450703,
      "urban_classification": "rural",
      "lat": 24.95000076293945,
      "long": 90.36000061035156,
      "division_id": "8",
      "division_english": "Mymensingh",
      "district_id": "10",
      "district_english": "Mymensingh"
    },
    {
      "id": "147",
      "name_english": "Mymensingh-3",
      "name": "ময়মনসিংহ -৩",
      "total_population": 361276,
      "registered_voters": 234595,
      "urban_classification": "rural",
      "lat": 24.95000076293945,
      "long": 90.36000061035156,
      "division_id": "8",
      "division_english": "Mymensingh",
      "district_id": "10",
      "district_english": "Mymensingh"
    },
    {
      "id": "148",
      "name_english": "Mymensingh-4",
      "name": "ময়মনসিংহ -৪",
      "total_population": 1001445,
      "registered_voters": 650289,
      "urban_classification": "urban",
      "lat": 24.76000022888184,
      "long": 90.4000015258789,
      "division_id": "8",
      "division_english": "Mymensingh",
      "district_id": "10",
      "district_english": "Mymensingh"
    },
    {
      "id": "149",
      "name_english": "Mymensingh-5",
      "name": "ময়মনসিংহ -৫",
      "total_population": 472049,
      "registered_voters": 306525,
      "urban_classification": "rural",
      "lat": 24.77000045776367,
      "long": 90.26000213623047,
      "division_id": "8",
      "division_english": "Mymensingh",
      "district_id": "10",
      "district_english": "Mymensingh"
    },
    {
      "id": "150",
      "name_english": "Mymensingh-6",
      "name": "ময়মনসিংহ -৬",
      "total_population": 501640,
      "registered_voters": 325740,
      "urban_classification": "rural",
      "lat": 24.6299991607666,
      "long": 90.2699966430664,
      "division_id": "8",
      "division_english": "Mymensingh",
      "district_id": "10",
      "district_english": "Mymensingh"
    },
    {
      "id": "151",
      "name_english": "Mymensingh-7",
      "name": "ময়মনসিংহ -৭",
      "total_population": 485882,
      "registered_voters": 315508,
      "urban_classification": "rural",
      "lat": 24.57999992370605,
      "long": 90.38999938964844,
      "division_id": "8",
      "division_english": "Mymensingh",
      "district_id": "10",
      "district_english": "Mymensingh"
    },
    {
      "id": "152",
      "name_english": "Mymensingh-8",
      "name": "ময়মনসিংহ -৮",
      "total_population": 417642,
      "registered_voters": 271196,
      "urban_classification": "rural",
      "lat": 24.69000053405762,
      "long": 90.5999984741211,
      "division_id": "8",
      "division_english": "Mymensingh",
      "district_id": "10",
      "district_english": "Mymensingh"
    },
    {
      "id": "153",
      "name_english": "Mymensingh-9",
      "name": "ময়মনসিংহ -৯",
      "total_population": 452922,
      "registered_voters": 294105,
      "urban_classification": "rural",
      "lat": 24.56999969482422,
      "long": 90.69000244140625,
      "division_id": "8",
      "division_english": "Mymensingh",
      "district_id": "10",
      "district_english": "Mymensingh"
    },
    {
      "id": "154",
      "name_english": "Mymensingh-10",
      "name": "ময়মনসিংহ -১০",
      "total_population": 499491,
      "registered_voters": 324345,
      "urban_classification": "rural",
      "lat": 24.45000076293945,
      "long": 90.55000305175781,
      "division_id": "8",
      "division_english": "Mymensingh",
      "district_id": "10",
      "district_english": "Mymensingh"
    },
    {
      "id": "155",
      "name_english": "Mymensingh-11",
      "name": "ময়মনসিংহ -১১",
      "total_population": 453974,
      "registered_voters": 294788,
      "urban_classification": "rural",
      "lat": 24.39999961853027,
      "long": 90.38999938964844,
      "division_id": "8",
      "division_english": "Mymensingh",
      "district_id": "10",
      "district_english": "Mymensingh"
    },
    {
      "id": "156",
      "name_english": "Netrokona-1",
      "name": "নেত্রকোনা -১",
      "total_population": 543937,
      "registered_voters": 353206,
      "urban_classification": "rural",
      "lat": 25.07999992370605,
      "long": 90.88999938964844,
      "division_id": "8",
      "division_english": "Mymensingh",
      "district_id": "13",
      "district_english": "Netrokona"
    },
    {
      "id": "157",
      "name_english": "Netrokona-2",
      "name": "নেত্রকোনা -২",
      "total_population": 610233,
      "registered_voters": 396255,
      "urban_classification": "rural",
      "lat": 24.8700008392334,
      "long": 90.7300033569336,
      "division_id": "8",
      "division_english": "Mymensingh",
      "district_id": "13",
      "district_english": "Netrokona"
    },
    {
      "id": "158",
      "name_english": "Netrokona-3",
      "name": "নেত্রকোনা -৩",
      "total_population": 515058,
      "registered_voters": 334453,
      "urban_classification": "rural",
      "lat": 24.65999984741211,
      "long": 90.83999633789062,
      "division_id": "8",
      "division_english": "Mymensingh",
      "district_id": "13",
      "district_english": "Netrokona"
    },
    {
      "id": "159",
      "name_english": "Netrokona-4",
      "name": "নেত্রকোনা -৪",
      "total_population": 459285,
      "registered_voters": 298237,
      "urban_classification": "rural",
      "lat": 24.8700008392334,
      "long": 90.9800033569336,
      "division_id": "8",
      "division_english": "Mymensingh",
      "district_id": "13",
      "district_english": "Netrokona"
    },
    {
      "id": "160",
      "name_english": "Netrokona-5",
      "name": "নেত্রকোনা -৫",
      "total_population": 0,
      "registered_voters": 0,
      "urban_classification": "rural",
      "lat": 0,
      "long": 0,
      "division_id": "8",
      "division_english": "Mymensingh",
      "district_id": "13",
      "district_english": "Netrokona"
    },
    {
      "id": "161",
      "name_english": "Kishoreganj-1",
      "name": "কিশোরগঞ্জ -১",
      "total_population": 662497,
      "registered_voters": 430193,
      "urban_classification": "rural",
      "lat": 24.45000076293945,
      "long": 90.77999877929688,
      "division_id": "3",
      "division_english": "Dhaka",
      "district_id": "6",
      "district_english": "Kishoreganj"
    },
    {
      "id": "162",
      "name_english": "Kishoreganj-2",
      "name": "কিশোরগঞ্জ -২",
      "total_population": 642588,
      "registered_voters": 417265,
      "urban_classification": "rural",
      "lat": 0,
      "long": 0,
      "division_id": "3",
      "division_english": "Dhaka",
      "district_id": "6",
      "district_english": "Kishoreganj"
    },
    {
      "id": "163",
      "name_english": "Kishoreganj-3",
      "name": "কিশোরগঞ্জ -৩",
      "total_population": 0,
      "registered_voters": 0,
      "urban_classification": "rural",
      "lat": 0,
      "long": 0,
      "division_id": "3",
      "division_english": "Dhaka",
      "district_id": "6",
      "district_english": "Kishoreganj"
    },
    {
      "id": "164",
      "name_english": "Kishoreganj-4",
      "name": "কিশোরগঞ্জ -৪",
      "total_population": 493179,
      "registered_voters": 320246,
      "urban_classification": "rural",
      "lat": 24.53000068664551,
      "long": 91.0999984741211,
      "division_id": "3",
      "division_english": "Dhaka",
      "district_id": "6",
      "district_english": "Kishoreganj"
    },
    {
      "id": "165",
      "name_english": "Kishoreganj-5",
      "name": "কিশোরগঞ্জ -৫",
      "total_population": 429210,
      "registered_voters": 278708,
      "urban_classification": "rural",
      "lat": 24.20999908447266,
      "long": 90.94000244140625,
      "division_id": "3",
      "division_english": "Dhaka",
      "district_id": "6",
      "district_english": "Kishoreganj"
    },
    {
      "id": "166",
      "name_english": "Kishoreganj-6",
      "name": "কিশোরগঞ্জ -৬",
      "total_population": 512283,
      "registered_voters": 332651,
      "urban_classification": "rural",
      "lat": 24.05999946594238,
      "long": 90.9800033569336,
      "division_id": "3",
      "division_english": "Dhaka",
      "district_id": "6",
      "district_english": "Kishoreganj"
    },
    {
      "id": "167",
      "name_english": "Manikganj-1",
      "name": "মানিকগঞ্জ -১",
      "total_population": 592299,
      "registered_voters": 384610,
      "urban_classification": "rural",
      "lat": 23.84000015258789,
      "long": 89.81999969482422,
      "division_id": "3",
      "division_english": "Dhaka",
      "district_id": "8",
      "district_english": "Manikganj"
    },
    {
      "id": "168",
      "name_english": "Manikganj-2",
      "name": "মানিকগঞ্জ -২",
      "total_population": 625617,
      "registered_voters": 406245,
      "urban_classification": "rural",
      "lat": 23.80999946594238,
      "long": 90.1500015258789,
      "division_id": "3",
      "division_english": "Dhaka",
      "district_id": "8",
      "district_english": "Manikganj"
    },
    {
      "id": "169",
      "name_english": "Manikganj-3",
      "name": "মানিকগঞ্জ -৩",
      "total_population": 492372,
      "registered_voters": 319722,
      "urban_classification": "rural",
      "lat": 23.80999946594238,
      "long": 90.1500015258789,
      "division_id": "3",
      "division_english": "Dhaka",
      "district_id": "8",
      "district_english": "Manikganj"
    },
    {
      "id": "170",
      "name_english": "Munshiganj-1",
      "name": "মুন্সীগঞ্জ -১",
      "total_population": 678419,
      "registered_voters": 440532,
      "urban_classification": "rural",
      "lat": 23.56999969482422,
      "long": 90.37000274658203,
      "division_id": "3",
      "division_english": "Dhaka",
      "district_id": "9",
      "district_english": "Munshiganj"
    },
    {
      "id": "171",
      "name_english": "Munshiganj-2",
      "name": "মুন্সীগঞ্জ -২",
      "total_population": 471220,
      "registered_voters": 305987,
      "urban_classification": "rural",
      "lat": 23.51000022888184,
      "long": 90.47000122070312,
      "division_id": "3",
      "division_english": "Dhaka",
      "district_id": "9",
      "district_english": "Munshiganj"
    },
    {
      "id": "172",
      "name_english": "Munshiganj-3",
      "name": "মুন্সীগঞ্জ -৩",
      "total_population": 0,
      "registered_voters": 0,
      "urban_classification": "rural",
      "lat": 0,
      "long": 0,
      "division_id": "3",
      "division_english": "Dhaka",
      "district_id": "9",
      "district_english": "Munshiganj"
    },
    {
      "id": "173",
      "name_english": "Dhaka-1",
      "name": "ঢাকা -১",
      "total_population": 678042,
      "registered_voters": 440287,
      "urban_classification": "rural",
      "lat": 23.65999984741211,
      "long": 90.16000366210938,
      "division_id": "3",
      "division_english": "Dhaka",
      "district_id": "1",
      "district_english": "Dhaka"
    },
    {
      "id": "174",
      "name_english": "Dhaka-2",
      "name": "ঢাকা -২",
      "total_population": 761293,
      "registered_voters": 494346,
      "urban_classification": "rural",
      "lat": 23.70000076293945,
      "long": 90.33999633789062,
      "division_id": "3",
      "division_english": "Dhaka",
      "district_id": "1",
      "district_english": "Dhaka"
    },
    {
      "id": "175",
      "name_english": "Dhaka-3",
      "name": "ঢাকা -৩",
      "total_population": 479890,
      "registered_voters": 311617,
      "urban_classification": "rural",
      "lat": 23.70000076293945,
      "long": 90.33999633789062,
      "division_id": "3",
      "division_english": "Dhaka",
      "district_id": "1",
      "district_english": "Dhaka"
    },
    {
      "id": "176",
      "name_english": "Dhaka-4",
      "name": "ঢাকা -৪",
      "total_population": 378552,
      "registered_voters": 245813,
      "urban_classification": "urban",
      "lat": 23.69000053405762,
      "long": 90.43000030517578,
      "division_id": "3",
      "division_english": "Dhaka",
      "district_id": "1",
      "district_english": "Dhaka"
    },
    {
      "id": "177",
      "name_english": "Dhaka-5",
      "name": "ঢাকা -৫",
      "total_population": 693936,
      "registered_voters": 450608,
      "urban_classification": "urban",
      "lat": 23.70999908447266,
      "long": 90.44000244140625,
      "division_id": "3",
      "division_english": "Dhaka",
      "district_id": "1",
      "district_english": "Dhaka"
    },
    {
      "id": "178",
      "name_english": "Dhaka-6",
      "name": "ঢাকা -৬",
      "total_population": 414745,
      "registered_voters": 269315,
      "urban_classification": "urban",
      "lat": 23.70999908447266,
      "long": 90.41999816894531,
      "division_id": "3",
      "division_english": "Dhaka",
      "district_id": "1",
      "district_english": "Dhaka"
    },
    {
      "id": "179",
      "name_english": "Dhaka-7",
      "name": "ঢাকা -৭",
      "total_population": 505399,
      "registered_voters": 328181,
      "urban_classification": "urban",
      "lat": 23.71999931335449,
      "long": 90.38999938964844,
      "division_id": "3",
      "division_english": "Dhaka",
      "district_id": "1",
      "district_english": "Dhaka"
    },
    {
      "id": "180",
      "name_english": "Dhaka-8",
      "name": "ঢাকা -৮",
      "total_population": 407583,
      "registered_voters": 264664,
      "urban_classification": "urban",
      "lat": 23.72999954223633,
      "long": 90.41000366210938,
      "division_id": "3",
      "division_english": "Dhaka",
      "district_id": "1",
      "district_english": "Dhaka"
    },
    {
      "id": "181",
      "name_english": "Dhaka-9",
      "name": "ঢাকা -৯",
      "total_population": 655272,
      "registered_voters": 425501,
      "urban_classification": "urban",
      "lat": 23.73999977111816,
      "long": 90.44000244140625,
      "division_id": "3",
      "division_english": "Dhaka",
      "district_id": "1",
      "district_english": "Dhaka"
    },
    {
      "id": "182",
      "name_english": "Dhaka-10",
      "name": "ঢাকা -১০",
      "total_population": 483166,
      "registered_voters": 313744,
      "urban_classification": "urban",
      "lat": 23.73999977111816,
      "long": 90.37999725341797,
      "division_id": "3",
      "division_english": "Dhaka",
      "district_id": "1",
      "district_english": "Dhaka"
    },
    {
      "id": "183",
      "name_english": "Dhaka-11",
      "name": "ঢাকা -১১",
      "total_population": 639801,
      "registered_voters": 415455,
      "urban_classification": "urban",
      "lat": 23.77000045776367,
      "long": 90.43000030517578,
      "division_id": "3",
      "division_english": "Dhaka",
      "district_id": "1",
      "district_english": "Dhaka"
    },
    {
      "id": "184",
      "name_english": "Dhaka-12",
      "name": "ঢাকা -১২",
      "total_population": 523354,
      "registered_voters": 339840,
      "urban_classification": "urban",
      "lat": 23.70999908447266,
      "long": 90.41999816894531,
      "division_id": "3",
      "division_english": "Dhaka",
      "district_id": "1",
      "district_english": "Dhaka"
    },
    {
      "id": "185",
      "name_english": "Dhaka-13",
      "name": "ঢাকা -১৩",
      "total_population": 0,
      "registered_voters": 0,
      "urban_classification": "urban",
      "lat": 0,
      "long": 0,
      "division_id": "3",
      "division_english": "Dhaka",
      "district_id": "1",
      "district_english": "Dhaka"
    },
    {
      "id": "186",
      "name_english": "Dhaka-14",
      "name": "ঢাকা -১৪",
      "total_population": 0,
      "registered_voters": 0,
      "urban_classification": "urban",
      "lat": 0,
      "long": 0,
      "division_id": "3",
      "division_english": "Dhaka",
      "district_id": "1",
      "district_english": "Dhaka"
    },
    {
      "id": "187",
      "name_english": "Dhaka-15",
      "name": "ঢাকা -১৫",
      "total_population": 524339,
      "registered_voters": 340480,
      "urban_classification": "urban",
      "lat": 23.79000091552734,
      "long": 90.38999938964844,
      "division_id": "3",
      "division_english": "Dhaka",
      "district_id": "1",
      "district_english": "Dhaka"
    },
    {
      "id": "188",
      "name_english": "Dhaka-16",
      "name": "ঢাকা -১৬",
      "total_population": 576197,
      "registered_voters": 374154,
      "urban_classification": "urban",
      "lat": 23.82999992370605,
      "long": 90.36000061035156,
      "division_id": "3",
      "division_english": "Dhaka",
      "district_id": "1",
      "district_english": "Dhaka"
    },
    {
      "id": "189",
      "name_english": "Dhaka-17",
      "name": "ঢাকা -১৭",
      "total_population": 483368,
      "registered_voters": 313875,
      "urban_classification": "urban",
      "lat": 23.79999923706055,
      "long": 90.41000366210938,
      "division_id": "3",
      "division_english": "Dhaka",
      "district_id": "1",
      "district_english": "Dhaka"
    },
    {
      "id": "190",
      "name_english": "Dhaka-18",
      "name": "ঢাকা -১৮",
      "total_population": 855890,
      "registered_voters": 555773,
      "urban_classification": "urban",
      "lat": 23.86000061035156,
      "long": 90.43000030517578,
      "division_id": "3",
      "division_english": "Dhaka",
      "district_id": "1",
      "district_english": "Dhaka"
    },
    {
      "id": "191",
      "name_english": "Dhaka-19",
      "name": "ঢাকা -১৯",
      "total_population": 1150298,
      "registered_voters": 746947,
      "urban_classification": "urban",
      "lat": 23.82999992370605,
      "long": 90.26000213623047,
      "division_id": "3",
      "division_english": "Dhaka",
      "district_id": "1",
      "district_english": "Dhaka"
    },
    {
      "id": "192",
      "name_english": "Dhaka-20",
      "name": "ঢাকা -২০",
      "total_population": 493143,
      "registered_voters": 320223,
      "urban_classification": "rural",
      "lat": 23.92000007629395,
      "long": 90.20999908447266,
      "division_id": "3",
      "division_english": "Dhaka",
      "district_id": "1",
      "district_english": "Dhaka"
    },
    {
      "id": "193",
      "name_english": "Gazipur-1",
      "name": "গাজীপুর -১",
      "total_population": 1023359,
      "registered_voters": 664519,
      "urban_classification": "urban",
      "lat": 24.20000076293945,
      "long": 90.47000122070312,
      "division_id": "3",
      "division_english": "Dhaka",
      "district_id": "3",
      "district_english": "Gazipur"
    },
    {
      "id": "194",
      "name_english": "Gazipur-2",
      "name": "গাজীপুর -২",
      "total_population": 1148430,
      "registered_voters": 745734,
      "urban_classification": "urban",
      "lat": 24,
      "long": 90.43000030517578,
      "division_id": "3",
      "division_english": "Dhaka",
      "district_id": "3",
      "district_english": "Gazipur"
    },
    {
      "id": "195",
      "name_english": "Gazipur-3",
      "name": "গাজীপুর -৩",
      "total_population": 672467,
      "registered_voters": 436667,
      "urban_classification": "rural",
      "lat": 24.20000076293945,
      "long": 90.47000122070312,
      "division_id": "3",
      "division_english": "Dhaka",
      "district_id": "3",
      "district_english": "Gazipur"
    },
    {
      "id": "196",
      "name_english": "Gazipur-4",
      "name": "গাজীপুর -৪",
      "total_population": 411787,
      "registered_voters": 267394,
      "urban_classification": "rural",
      "lat": 24.11000061035156,
      "long": 90.56999969482422,
      "division_id": "3",
      "division_english": "Dhaka",
      "district_id": "3",
      "district_english": "Gazipur"
    },
    {
      "id": "197",
      "name_english": "Gazipur-5",
      "name": "গাজীপুর -৫",
      "total_population": 465935,
      "registered_voters": 302555,
      "urban_classification": "urban",
      "lat": 23.92000007629395,
      "long": 90.56999969482422,
      "division_id": "3",
      "division_english": "Dhaka",
      "district_id": "3",
      "district_english": "Gazipur"
    },
    {
      "id": "198",
      "name_english": "Gazipur-6",
      "name": "গাজীপুর -৬",
      "total_population": 0,
      "registered_voters": 0,
      "urban_classification": "urban",
      "lat": 0,
      "long": 0,
      "division_id": "3",
      "division_english": "Dhaka",
      "district_id": "3",
      "district_english": "Gazipur"
    },
    {
      "id": "199",
      "name_english": "Narsingdi-1",
      "name": "নরসিংদী -১",
      "total_population": 585346,
      "registered_voters": 380095,
      "urban_classification": "rural",
      "lat": 23.93000030517578,
      "long": 90.72000122070312,
      "division_id": "3",
      "division_english": "Dhaka",
      "district_id": "12",
      "district_english": "Narsingdi"
    },
    {
      "id": "200",
      "name_english": "Narsingdi-2",
      "name": "নরসিংদী -২",
      "total_population": 360934,
      "registered_voters": 234373,
      "urban_classification": "rural",
      "lat": 23.97999954223633,
      "long": 90.6500015258789,
      "division_id": "3",
      "division_english": "Dhaka",
      "district_id": "12",
      "district_english": "Narsingdi"
    },
    {
      "id": "201",
      "name_english": "Narsingdi-3",
      "name": "নরসিংদী -৩",
      "total_population": 345899,
      "registered_voters": 224610,
      "urban_classification": "rural",
      "lat": 24.04000091552734,
      "long": 90.73999786376953,
      "division_id": "3",
      "division_english": "Dhaka",
      "district_id": "12",
      "district_english": "Narsingdi"
    },
    {
      "id": "202",
      "name_english": "Narsingdi-4",
      "name": "নরসিংদী -৪",
      "total_population": 526283,
      "registered_voters": 341742,
      "urban_classification": "rural",
      "lat": 24.14999961853027,
      "long": 90.69999694824219,
      "division_id": "3",
      "division_english": "Dhaka",
      "district_id": "12",
      "district_english": "Narsingdi"
    },
    {
      "id": "203",
      "name_english": "Narsingdi-5",
      "name": "নরসিংদী -৫",
      "total_population": 701157,
      "registered_voters": 455297,
      "urban_classification": "rural",
      "lat": 23.99290084838867,
      "long": 90.87030029296875,
      "division_id": "3",
      "division_english": "Dhaka",
      "district_id": "12",
      "district_english": "Narsingdi"
    },
    {
      "id": "204",
      "name_english": "Narayanganj-1",
      "name": "নারায়ণগঞ্জ -১",
      "total_population": 0,
      "registered_voters": 0,
      "urban_classification": "rural",
      "lat": 0,
      "long": 0,
      "division_id": "3",
      "division_english": "Dhaka",
      "district_id": "11",
      "district_english": "Narayanganj"
    },
    {
      "id": "205",
      "name_english": "Narayanganj-2",
      "name": "নারায়ণগঞ্জ -২",
      "total_population": 437155,
      "registered_voters": 283867,
      "urban_classification": "rural",
      "lat": 23.79000091552734,
      "long": 90.66000366210938,
      "division_id": "3",
      "division_english": "Dhaka",
      "district_id": "11",
      "district_english": "Narayanganj"
    },
    {
      "id": "206",
      "name_english": "Narayanganj-3",
      "name": "নারায়ণগঞ্জ -৩",
      "total_population": 0,
      "registered_voters": 0,
      "urban_classification": "urban",
      "lat": 0,
      "long": 0,
      "division_id": "3",
      "division_english": "Dhaka",
      "district_id": "11",
      "district_english": "Narayanganj"
    },
    {
      "id": "207",
      "name_english": "Narayanganj-4",
      "name": "নারায়ণগঞ্জ -৪",
      "total_population": 1002692,
      "registered_voters": 651099,
      "urban_classification": "rural",
      "lat": 23.63999938964844,
      "long": 90.4800033569336,
      "division_id": "3",
      "division_english": "Dhaka",
      "district_id": "11",
      "district_english": "Narayanganj"
    },
    {
      "id": "208",
      "name_english": "Narayanganj-5",
      "name": "নারায়ণগঞ্জ -৫",
      "total_population": 686249,
      "registered_voters": 445616,
      "urban_classification": "urban",
      "lat": 23.6299991607666,
      "long": 90.5,
      "division_id": "3",
      "division_english": "Dhaka",
      "district_id": "11",
      "district_english": "Narayanganj"
    },
    {
      "id": "209",
      "name_english": "Rajbari-1",
      "name": "রাজবাড়ী -১",
      "total_population": 533793,
      "registered_voters": 346619,
      "urban_classification": "rural",
      "lat": 23.76000022888184,
      "long": 89.63999938964844,
      "division_id": "3",
      "division_english": "Dhaka",
      "district_id": "14",
      "district_english": "Rajbari"
    },
    {
      "id": "210",
      "name_english": "Rajbari-2",
      "name": "রাজবাড়ী -২",
      "total_population": 712208,
      "registered_voters": 462473,
      "urban_classification": "rural",
      "lat": 23.76000022888184,
      "long": 89.63999938964844,
      "division_id": "3",
      "division_english": "Dhaka",
      "district_id": "14",
      "district_english": "Rajbari"
    },
    {
      "id": "211",
      "name_english": "Faridpur-1",
      "name": "ফরিদপুর -১",
      "total_population": 632172,
      "registered_voters": 410501,
      "urban_classification": "rural",
      "lat": 23.38999938964844,
      "long": 89.68000030517578,
      "division_id": "3",
      "division_english": "Dhaka",
      "district_id": "2",
      "district_english": "Faridpur"
    },
    {
      "id": "212",
      "name_english": "Faridpur-2",
      "name": "ফরিদপুর -২",
      "total_population": 442550,
      "registered_voters": 287370,
      "urban_classification": "rural",
      "lat": 23.42000007629395,
      "long": 89.88999938964844,
      "division_id": "3",
      "division_english": "Dhaka",
      "district_id": "2",
      "district_english": "Faridpur"
    },
    {
      "id": "213",
      "name_english": "Faridpur-3",
      "name": "ফরিদপুর -৩",
      "total_population": 544342,
      "registered_voters": 353469,
      "urban_classification": "rural",
      "lat": 23.61000061035156,
      "long": 89.83999633789062,
      "division_id": "3",
      "division_english": "Dhaka",
      "district_id": "2",
      "district_english": "Faridpur"
    },
    {
      "id": "214",
      "name_english": "Faridpur-4",
      "name": "ফরিদপুর -৪",
      "total_population": 570870,
      "registered_voters": 370695,
      "urban_classification": "rural",
      "lat": 23.38999938964844,
      "long": 89.9800033569336,
      "division_id": "3",
      "division_english": "Dhaka",
      "district_id": "2",
      "district_english": "Faridpur"
    },
    {
      "id": "215",
      "name_english": "Gopalganj-1",
      "name": "গোপালগঞ্জ -১",
      "total_population": 495033,
      "registered_voters": 321450,
      "urban_classification": "rural",
      "lat": 23.31999969482422,
      "long": 89.87000274658203,
      "division_id": "3",
      "division_english": "Dhaka",
      "district_id": "4",
      "district_english": "Gopalganj"
    },
    {
      "id": "216",
      "name_english": "Gopalganj-2",
      "name": "গোপালগঞ্জ -২",
      "total_population": 480206,
      "registered_voters": 311822,
      "urban_classification": "rural",
      "lat": 23.01000022888184,
      "long": 89.83000183105469,
      "division_id": "3",
      "division_english": "Dhaka",
      "district_id": "4",
      "district_english": "Gopalganj"
    },
    {
      "id": "217",
      "name_english": "Gopalganj-3",
      "name": "গোপালগঞ্জ -৩",
      "total_population": 379895,
      "registered_voters": 246685,
      "urban_classification": "rural",
      "lat": 22.98999977111816,
      "long": 90,
      "division_id": "3",
      "division_english": "Dhaka",
      "district_id": "4",
      "district_english": "Gopalganj"
    },
    {
      "id": "218",
      "name_english": "Madaripur-1",
      "name": "মাদারীপুর -১",
      "total_population": 377446,
      "registered_voters": 245095,
      "urban_classification": "rural",
      "lat": 23.35000038146973,
      "long": 90.16999816894531,
      "division_id": "3",
      "division_english": "Dhaka",
      "district_id": "7",
      "district_english": "Madaripur"
    },
    {
      "id": "219",
      "name_english": "Madaripur-2",
      "name": "মাদারীপুর -২",
      "total_population": 534734,
      "registered_voters": 347230,
      "urban_classification": "rural",
      "lat": 23.20999908447266,
      "long": 90.05000305175781,
      "division_id": "3",
      "division_english": "Dhaka",
      "district_id": "7",
      "district_english": "Madaripur"
    },
    {
      "id": "220",
      "name_english": "Madaripur-3",
      "name": "মাদারীপুর -৩",
      "total_population": 458851,
      "registered_voters": 297955,
      "urban_classification": "rural",
      "lat": 23.06999969482422,
      "long": 90.2300033569336,
      "division_id": "3",
      "division_english": "Dhaka",
      "district_id": "7",
      "district_english": "Madaripur"
    },
    {
      "id": "221",
      "name_english": "Shariatpur-1",
      "name": "শরীয়তপুর -১",
      "total_population": 455868,
      "registered_voters": 296018,
      "urban_classification": "rural",
      "lat": 23.20999908447266,
      "long": 90.3499984741211,
      "division_id": "3",
      "division_english": "Dhaka",
      "district_id": "15",
      "district_english": "Shariatpur"
    },
    {
      "id": "222",
      "name_english": "Shariatpur-2",
      "name": "শরীয়তপুর -২",
      "total_population": 477928,
      "registered_voters": 310343,
      "urban_classification": "rural",
      "lat": 23.29999923706055,
      "long": 90.41000366210938,
      "division_id": "3",
      "division_english": "Dhaka",
      "district_id": "15",
      "district_english": "Shariatpur"
    },
    {
      "id": "223",
      "name_english": "Shariatpur-3",
      "name": "শরীয়তপুর -৩",
      "total_population": 393154,
      "registered_voters": 255295,
      "urban_classification": "urban",
      "lat": 23.10000038146973,
      "long": 90.44999694824219,
      "division_id": "3",
      "division_english": "Dhaka",
      "district_id": "15",
      "district_english": "Shariatpur"
    },
    {
      "id": "224",
      "name_english": "Sunamganj-1",
      "name": "সুনামগঞ্জ -১",
      "total_population": 615013,
      "registered_voters": 399359,
      "urban_classification": "rural",
      "lat": 24.89999961853027,
      "long": 91.01000213623047,
      "division_id": "7",
      "division_english": "Sylhet",
      "district_id": "53",
      "district_english": "Sunamganj"
    },
    {
      "id": "225",
      "name_english": "Sunamganj-2",
      "name": "সুনামগঞ্জ -২",
      "total_population": 386110,
      "registered_voters": 250721,
      "urban_classification": "rural",
      "lat": 24.79000091552734,
      "long": 91.3499984741211,
      "division_id": "7",
      "division_english": "Sylhet",
      "district_id": "53",
      "district_english": "Sunamganj"
    },
    {
      "id": "226",
      "name_english": "Sunamganj-3",
      "name": "সুনামগঞ্জ -৩",
      "total_population": 450405,
      "registered_voters": 292471,
      "urban_classification": "rural",
      "lat": 24.77000045776367,
      "long": 91.55000305175781,
      "division_id": "7",
      "division_english": "Sylhet",
      "district_id": "53",
      "district_english": "Sunamganj"
    },
    {
      "id": "227",
      "name_english": "Sunamganj-4",
      "name": "সুনামগঞ্জ -৪",
      "total_population": 445106,
      "registered_voters": 289030,
      "urban_classification": "rural",
      "lat": 25.06999969482422,
      "long": 91.4000015258789,
      "division_id": "7",
      "division_english": "Sylhet",
      "district_id": "53",
      "district_english": "Sunamganj"
    },
    {
      "id": "228",
      "name_english": "Sunamganj-5",
      "name": "সুনামগঞ্জ -৫",
      "total_population": 640569,
      "registered_voters": 415954,
      "urban_classification": "rural",
      "lat": 25.03000068664551,
      "long": 91.66000366210938,
      "division_id": "7",
      "division_english": "Sylhet",
      "district_id": "53",
      "district_english": "Sunamganj"
    },
    {
      "id": "229",
      "name_english": "Sylhet-1",
      "name": "সিলেট -১",
      "total_population": 838136,
      "registered_voters": 544244,
      "urban_classification": "urban",
      "lat": 24.88999938964844,
      "long": 91.87000274658203,
      "division_id": "7",
      "division_english": "Sylhet",
      "district_id": "54",
      "district_english": "Sylhet"
    },
    {
      "id": "230",
      "name_english": "Sylhet-2",
      "name": "সিলেট -২",
      "total_population": 441342,
      "registered_voters": 286586,
      "urban_classification": "rural",
      "lat": 24.64999961853027,
      "long": 91.81999969482422,
      "division_id": "7",
      "division_english": "Sylhet",
      "district_id": "54",
      "district_english": "Sylhet"
    },
    {
      "id": "231",
      "name_english": "Sylhet-3",
      "name": "সিলেট -৩",
      "total_population": 498446,
      "registered_voters": 323666,
      "urban_classification": "urban",
      "lat": 24.81999969482422,
      "long": 91.9000015258789,
      "division_id": "7",
      "division_english": "Sylhet",
      "district_id": "54",
      "district_english": "Sylhet"
    },
    {
      "id": "232",
      "name_english": "Sylhet-4",
      "name": "সিলেট-৪",
      "total_population": 588636,
      "registered_voters": 382231,
      "urban_classification": "rural",
      "lat": 25.09000015258789,
      "long": 91.9800033569336,
      "division_id": "7",
      "division_english": "Sylhet",
      "district_id": "54",
      "district_english": "Sylhet"
    },
    {
      "id": "233",
      "name_english": "Sylhet-5",
      "name": "সিলেট-৫",
      "total_population": 499745,
      "registered_voters": 324510,
      "urban_classification": "rural",
      "lat": 25.01000022888184,
      "long": 92.26000213623047,
      "division_id": "7",
      "division_english": "Sylhet",
      "district_id": "54",
      "district_english": "Sylhet"
    },
    {
      "id": "234",
      "name_english": "Sylhet-6",
      "name": "সিলেট-৬",
      "total_population": 605397,
      "registered_voters": 393115,
      "urban_classification": "rural",
      "lat": 24.85000038146973,
      "long": 92.0199966430664,
      "division_id": "7",
      "division_english": "Sylhet",
      "district_id": "54",
      "district_english": "Sylhet"
    },
    {
      "id": "235",
      "name_english": "Moulvibazar-1",
      "name": "মৌলভীবাজার-১",
      "total_population": 409346,
      "registered_voters": 265809,
      "urban_classification": "rural",
      "lat": 24.70000076293945,
      "long": 92.19000244140625,
      "division_id": "7",
      "division_english": "Sylhet",
      "district_id": "52",
      "district_english": "Maulvibazar"
    },
    {
      "id": "236",
      "name_english": "Moulvibazar-2",
      "name": "মৌলভীবাজার-২",
      "total_population": 371400,
      "registered_voters": 241169,
      "urban_classification": "rural",
      "lat": 24.52000045776367,
      "long": 92.02999877929688,
      "division_id": "7",
      "division_english": "Sylhet",
      "district_id": "52",
      "district_english": "Maulvibazar"
    },
    {
      "id": "237",
      "name_english": "Moulvibazar-3",
      "name": "মৌলভীবাজার-৩",
      "total_population": 602691,
      "registered_voters": 391358,
      "urban_classification": "rural",
      "lat": 24.47999954223633,
      "long": 91.7699966430664,
      "division_id": "7",
      "division_english": "Sylhet",
      "district_id": "52",
      "district_english": "Maulvibazar"
    },
    {
      "id": "238",
      "name_english": "Moulvibazar-4",
      "name": "মৌলভীবাজার-৪",
      "total_population": 385542,
      "registered_voters": 250352,
      "urban_classification": "rural",
      "lat": 24.30999946594238,
      "long": 91.7300033569336,
      "division_id": "7",
      "division_english": "Sylhet",
      "district_id": "52",
      "district_english": "Maulvibazar"
    },
    {
      "id": "239",
      "name_english": "Habiganj-1",
      "name": "হবিগঞ্জ -১",
      "total_population": 562128,
      "registered_voters": 365018,
      "urban_classification": "rural",
      "lat": 24.56999969482422,
      "long": 91.51000213623047,
      "division_id": "7",
      "division_english": "Sylhet",
      "district_id": "51",
      "district_english": "Habiganj"
    },
    {
      "id": "240",
      "name_english": "Habiganj-2",
      "name": "হবিগঞ্জ -২",
      "total_population": 472751,
      "registered_voters": 306981,
      "urban_classification": "rural",
      "lat": 24.52000045776367,
      "long": 91.37000274658203,
      "division_id": "7",
      "division_english": "Sylhet",
      "district_id": "51",
      "district_english": "Habiganj"
    },
    {
      "id": "241",
      "name_english": "Habiganj-3",
      "name": "হবিগঞ্জ -৩",
      "total_population": 503307,
      "registered_voters": 326823,
      "urban_classification": "rural",
      "lat": 24.3700008392334,
      "long": 91.41999816894531,
      "division_id": "7",
      "division_english": "Sylhet",
      "district_id": "51",
      "district_english": "Habiganj"
    },
    {
      "id": "242",
      "name_english": "Habiganj-4",
      "name": "হবিগঞ্জ -৪",
      "total_population": 658438,
      "registered_voters": 427557,
      "urban_classification": "rural",
      "lat": 24.10000038146973,
      "long": 91.29000091552734,
      "division_id": "7",
      "division_english": "Sylhet",
      "district_id": "51",
      "district_english": "Habiganj"
    },
    {
      "id": "243",
      "name_english": "Brahmanbaria-1",
      "name": "ব্রাহ্মণবাড়িয়া - ১",
      "total_population": 329620,
      "registered_voters": 214039,
      "urban_classification": "rural",
      "lat": 24.20000076293945,
      "long": 91.19000244140625,
      "division_id": "2",
      "division_english": "Chattogram",
      "district_id": "41",
      "district_english": "Brahmanbaria"
    },
    {
      "id": "244",
      "name_english": "Brahmanbaria-2",
      "name": "ব্রাহ্মণবাড়িয়া - ২",
      "total_population": 450593,
      "registered_voters": 292593,
      "urban_classification": "rural",
      "lat": 24.06999969482422,
      "long": 91.11000061035156,
      "division_id": "2",
      "division_english": "Chattogram",
      "district_id": "41",
      "district_english": "Brahmanbaria"
    },
    {
      "id": "245",
      "name_english": "Brahmanbaria-3",
      "name": "ব্রাহ্মণবাড়িয়া - ৩",
      "total_population": 793279,
      "registered_voters": 515116,
      "urban_classification": "rural",
      "lat": 23.95999908447266,
      "long": 91.11000061035156,
      "division_id": "2",
      "division_english": "Chattogram",
      "district_id": "41",
      "district_english": "Brahmanbaria"
    },
    {
      "id": "246",
      "name_english": "Brahmanbaria-4",
      "name": "ব্রাহ্মণবাড়িয়া - ৪",
      "total_population": 503976,
      "registered_voters": 327257,
      "urban_classification": "rural",
      "lat": 23.75,
      "long": 91.1500015258789,
      "division_id": "2",
      "division_english": "Chattogram",
      "district_id": "41",
      "district_english": "Brahmanbaria"
    },
    {
      "id": "247",
      "name_english": "Brahmanbaria-5",
      "name": "ব্রাহ্মণবাড়িয়া - ৫",
      "total_population": 529594,
      "registered_voters": 343892,
      "urban_classification": "rural",
      "lat": 23.88999938964844,
      "long": 90.97000122070312,
      "division_id": "2",
      "division_english": "Chattogram",
      "district_id": "41",
      "district_english": "Brahmanbaria"
    },
    {
      "id": "248",
      "name_english": "Brahmanbaria-6",
      "name": "ব্রাহ্মণবাড়িয়া - ৬",
      "total_population": 334904,
      "registered_voters": 217470,
      "urban_classification": "rural",
      "lat": 23.77000045776367,
      "long": 90.80000305175781,
      "division_id": "2",
      "division_english": "Chattogram",
      "district_id": "41",
      "district_english": "Brahmanbaria"
    },
    {
      "id": "249",
      "name_english": "Comilla-1",
      "name": "কুমিল্লা - ১",
      "total_population": 534489,
      "registered_voters": 347071,
      "urban_classification": "rural",
      "lat": 23.53000068664551,
      "long": 90.72000122070312,
      "division_id": "2",
      "division_english": "Chattogram",
      "district_id": "44",
      "district_english": "Cumilla"
    },
    {
      "id": "250",
      "name_english": "Comilla-2",
      "name": "কুমিল্লা - ২",
      "total_population": 446642,
      "registered_voters": 290027,
      "urban_classification": "rural",
      "lat": 23.68000030517578,
      "long": 90.77999877929688,
      "division_id": "2",
      "division_english": "Chattogram",
      "district_id": "44",
      "district_english": "Cumilla"
    },
    {
      "id": "251",
      "name_english": "Comilla-3",
      "name": "কুমিল্লা - ৩",
      "total_population": 589952,
      "registered_voters": 383086,
      "urban_classification": "rural",
      "lat": 23.63999938964844,
      "long": 90.93000030517578,
      "division_id": "2",
      "division_english": "Chattogram",
      "district_id": "44",
      "district_english": "Cumilla"
    },
    {
      "id": "252",
      "name_english": "Comilla-4",
      "name": "কুমিল্লা - ৪",
      "total_population": 487797,
      "registered_voters": 316751,
      "urban_classification": "rural",
      "lat": 23.60000038146973,
      "long": 90.98999786376953,
      "division_id": "2",
      "division_english": "Chattogram",
      "district_id": "44",
      "district_english": "Cumilla"
    },
    {
      "id": "253",
      "name_english": "Comilla-5",
      "name": "কুমিল্লা - ৫",
      "total_population": 568209,
      "registered_voters": 368967,
      "urban_classification": "rural",
      "lat": 23.54999923706055,
      "long": 91.12999725341797,
      "division_id": "2",
      "division_english": "Chattogram",
      "district_id": "44",
      "district_english": "Cumilla"
    },