{
  "metadata": {
    "source": "বাংলাদেশ নির্বাচন কমিশন (Bangladesh Election Commission)",
    "election": "১২তম জাতীয় সংসদ নির্বাচন (12th National Parliament Election)",
    "election_date": "২০২৪-০১-০৭ (2024-01-07)",
    "official_total_voters": 119689289,
    "estimation_method": "Voter-to-population ratio (1:1.54)",
    "generated_at": "2025-12-27T01:35:44.824Z",
    "note_bn": "জনসংখ্যা নিবন্ধিত ভোটারদের উপর ভিত্তি করে অনুমান করা হয়েছে",
    "note_en": "Population estimated from registered voters. Update with BBS census data for accuracy.",
    "voter_data_source": "Bangladesh Election Commission - Final Electoral Rolls 2025",
    "voter_cutoff_date": "2025-10-31",
    "total_voters": 127695183,
    "updated_at": "2025-12-27T16:08:39.116Z"
  },
  "statistics": {
    "total_constituencies": 300,
    "total_population": 184321518,
    "total_voters": 119689289,
    "urban_constituencies": 44,
    "rural_constituencies": 256,
    "urban_population": 31342740,
    "rural_population": 152978778,
    "missing_coordinates": 15,
    "missing_voters": 0
  },
  "constituencies": [
    {
      "id": "1",
      "name_english": "Panchagarh-1",
      "name": "পঞ্চগড় -১",
      "total_population": 772918,
      "registered_voters": 535466,
      "urban_classification": "rural",
      "lat": 26.32999992370605,
      "long": 88.55999755859375,
      "division_id": "6",
      "division": "রংপুর",
      "division_english": "Rangpur",
      "district_id": "31",
      "district": "পঞ্চগড়",
      "district_english": "Panchagarh"
    },
    {
      "id": "2",
      "name_english": "Panchagarh-2",
      "name": "পঞ্চগড় - ২",
      "total_population": 689806,
      "registered_voters": 477887,
      "urban_classification": "urban",
      "lat": 26.20000076293945,
      "long": 88.55000305175781,
      "division_id": "6",
      "division": "রংপুর",
      "division_english": "Rangpur",
      "district_id": "31",
      "district": "পঞ্চগড়",
      "district_english": "Panchagarh"
    },
    {
      "id": "3",
      "name_english": "Thakurgaon-1",
      "name": "ঠাকুরগাঁও - ১",
      "total_population": 850199,
      "registered_voters": 589005,
      "urban_classification": "rural",
      "lat": 26.09000015258789,
      "long": 88.27999877929688,
      "division_id": "6",
      "division": "রংপুর",
      "division_english": "Rangpur",
      "district_id": "33",
      "district": "ঠাকুরগাঁও",
      "district_english": "Thakurgaon"
    },
    {
      "id": "4",
      "name_english": "Thakurgaon-2",
      "name": "ঠাকুরগাঁও-২",
      "total_population": 562496,
      "registered_voters": 389689,
      "urban_classification": "rural",
      "lat": 26.09000015258789,
      "long": 88.27999877929688,
      "division_id": "6",
      "division": "রংপুর",
      "division_english": "Rangpur",
      "district_id": "33",
      "district": "ঠাকুরগাঁও",
      "district_english": "Thakurgaon"
    },
    {
      "id": "5",
      "name_english": "Thakurgaon-3",
      "name": "ঠাকুরগাঁও - ৩",
      "total_population": 530730,
      "registered_voters": 367682,
      "urban_classification": "rural",
      "lat": 23.63999938964844,
      "long": 88.8499984741211,
      "division_id": "6",
      "division": "রংপুর",
      "division_english": "Rangpur",
      "district_id": "33",
      "district": "ঠাকুরগাঁও",
      "district_english": "Thakurgaon"
    },
    {
      "id": "6",
      "name_english": "Dinajpur-1",
      "name": "দিনাজপুর-১",
      "total_population": 608651,
      "registered_voters": 421664,
      "urban_classification": "rural",
      "lat": 25.86000061035156,
      "long": 88.6500015258789,
      "division_id": "6",
      "division": "রংপুর",
      "division_english": "Rangpur",
      "district_id": "26",
      "district": "দিনাজপুর",
      "district_english": "Dinajpur"
    },
    {
      "id": "7",
      "name_english": "Dinajpur-2",
      "name": "দিনাজপুর -২",
      "total_population": 542339,
      "registered_voters": 375724,
      "urban_classification": "rural",
      "lat": 25.6299991607666,
      "long": 88.55000305175781,
      "division_id": "6",
      "division": "রংপুর",
      "division_english": "Rangpur",
      "district_id": "26",
      "district": "দিনাজপুর",
      "district_english": "Dinajpur"
    },
    {
      "id": "8",
      "name_english": "Dinajpur-3",
      "name": "দিনাজপুর - ৩",
      "total_population": 618389,
      "registered_voters": 428410,
      "urban_classification": "rural",
      "lat": 25.6200008392334,
      "long": 88.63999938964844,
      "division_id": "6",
      "division": "রংপুর",
      "division_english": "Rangpur",
      "district_id": "26",
      "district": "দিনাজপুর",
      "district_english": "Dinajpur"
    },
    {
      "id": "9",
      "name_english": "Dinajpur-4",
      "name": "দিনাজপুর -৪",
      "total_population": 606568,
      "registered_voters": 420221,
      "urban_classification": "rural",
      "lat": 25.64999961853027,
      "long": 88.7699966430664,
      "division_id": "6",
      "division": "রংপুর",
      "division_english": "Rangpur",
      "district_id": "26",
      "district": "দিনাজপুর",
      "district_english": "Dinajpur"
    },
    {
      "id": "10",
      "name_english": "Dinajpur-5",
      "name": "দিনাজপুর - ৫",
      "total_population": 706262,
      "registered_voters": 489288,
      "urban_classification": "rural",
      "lat": 25.65999984741211,
      "long": 88.91000366210938,
      "division_id": "6",
      "division": "রংপুর",
      "division_english": "Rangpur",
      "district_id": "26",
      "district": "দিনাজপুর",
      "district_english": "Dinajpur"
    },
    {
      "id": "11",
      "name_english": "Dinajpur-6",
      "name": "দিনাজপুর-৬",
      "total_population": 824786,
      "registered_voters": 571399,
      "urban_classification": "rural",
      "lat": 25.42000007629395,
      "long": 89.08000183105469,
      "division_id": "6",
      "division": "রংপুর",
      "division_english": "Rangpur",
      "district_id": "26",
      "district": "দিনাজপুর",
      "district_english": "Dinajpur"
    },
    {
      "id": "12",
      "name_english": "Nilphamari-1",
      "name": "নীলফামারী -১",
      "total_population": 659015,
      "registered_voters": 456556,
      "urban_classification": "rural",
      "lat": 26.14999961853027,
      "long": 88.91999816894531,
      "division_id": "6",
      "division": "রংপুর",
      "division_english": "Rangpur",
      "district_id": "30",
      "district": "নীলফামারী",
      "district_english": "Nilphamari"
    },
    {
      "id": "13",
      "name_english": "Nilphamari-2",
      "name": "নীলফামারী-২",
      "total_population": 551460,
      "registered_voters": 382043,
      "urban_classification": "rural",
      "lat": 25.93000030517578,
      "long": 88.86000061035156,
      "division_id": "6",
      "division": "রংপুর",
      "division_english": "Rangpur",
      "district_id": "30",
      "district": "নীলফামারী",
      "district_english": "Nilphamari"
    },
    {
      "id": "14",
      "name_english": "Nilphamari-3",
      "name": "নীলফামারী-৩",
      "total_population": 417787,
      "registered_voters": 289436,
      "urban_classification": "rural",
      "lat": 26.02000045776367,
      "long": 89.0199966430664,
      "division_id": "6",
      "division": "রংপুর",
      "division_english": "Rangpur",
      "district_id": "30",
      "district": "নীলফামারী",
      "district_english": "Nilphamari"
    },
    {
      "id": "15",
      "name_english": "Nilphamari-4",
      "name": "নীলফামারী -৪",
      "total_population": 658067,
      "registered_voters": 455899,
      "urban_classification": "rural",
      "lat": 25.78000068664551,
      "long": 88.9000015258789,
      "division_id": "6",
      "division": "রংপুর",
      "division_english": "Rangpur",
      "district_id": "30",
      "district": "নীলফামারী",
      "district_english": "Nilphamari"
    },
    {
      "id": "16",
      "name_english": "Lalmonirhat-1",
      "name": "লালমনিরহাট - ১",
      "total_population": 562741,
      "registered_voters": 389858,
      "urban_classification": "rural",
      "lat": 26.1200008392334,
      "long": 89.13999938964844,
      "division_id": "6",
      "division": "রংপুর",
      "division_english": "Rangpur",
      "district_id": "29",
      "district": "লালমনিরহাট",
      "district_english": "Lalmonirhat"
    },
    {
      "id": "17",
      "name_english": "Lalmonirhat-2",
      "name": "লালমনিরহাট- ২",
      "total_population": 612666,
      "registered_voters": 424446,
      "urban_classification": "rural",
      "lat": 25.96999931335449,
      "long": 89.22000122070312,
      "division_id": "6",
      "division": "রংপুর",
      "division_english": "Rangpur",
      "district_id": "29",
      "district": "লালমনিরহাট",
      "district_english": "Lalmonirhat"
    },
    {
      "id": "18",
      "name_english": "Lalmonirhat-3",
      "name": "লালমনিরহাট- ৩",
      "total_population": 446218,
      "registered_voters": 309133,
      "urban_classification": "rural",
      "lat": 25.92000007629395,
      "long": 89.44999694824219,
      "division_id": "6",
      "division": "রংপুর",
      "division_english": "Rangpur",
      "district_id": "29",
      "district": "লালমনিরহাট",
      "district_english": "Lalmonirhat"
    },
    {
      "id": "19",
      "name_english": "Rangpur-1",
      "name": "রংপুর - ১",
      "total_population": 509454,
      "registered_voters": 352942,
      "urban_classification": "urban",
      "lat": 25.85000038146973,
      "long": 89.22000122070312,
      "division_id": "6",
      "division": "রংপুর",
      "division_english": "Rangpur",
      "district_id": "32",
      "district": "রংপুর",
      "district_english": "Rangpur"
    },
    {
      "id": "20",
      "name_english": "Rangpur-2",
      "name": "রংপুর -২",
      "total_population": 553373,
      "registered_voters": 383368,
      "urban_classification": "rural",
      "lat": 25.67000007629395,
      "long": 89.05000305175781,
      "division_id": "6",
      "division": "রংপুর",
      "division_english": "Rangpur",
      "district_id": "32",
      "district": "রংপুর",
      "district_english": "Rangpur"
    },
    {
      "id": "21",
      "name_english": "Rangpur-3",
      "name": "রংপুর -৩",
      "total_population": 781317,
      "registered_voters": 541285,
      "urban_classification": "urban",
      "lat": 25.76000022888184,
      "long": 89.23999786376953,
      "division_id": "6",
      "division": "রংপুর",
      "division_english": "Rangpur",
      "district_id": "32",
      "district": "রংপুর",
      "district_english": "Rangpur"
    },
    {
      "id": "22",
      "name_english": "Rangpur-4",
      "name": "রংপুর -৪",
      "total_population": 730581,
      "registered_voters": 506135,
      "urban_classification": "rural",
      "lat": 25.65999984741211,
      "long": 89.41000366210938,
      "division_id": "6",
      "division": "রংপুর",
      "division_english": "Rangpur",
      "district_id": "32",
      "district": "রংপুর",
      "district_english": "Rangpur"
    },
    {
      "id": "23",
      "name_english": "Rangpur-5",
      "name": "রংপুর-৫",
      "total_population": 683568,
      "registered_voters": 473565,
      "urban_classification": "rural",
      "lat": 25.56999969482422,
      "long": 89.2699966430664,
      "division_id": "6",
      "division": "রংপুর",
      "division_english": "Rangpur",
      "district_id": "32",
      "district": "রংপুর",
      "district_english": "Rangpur"
    },
    {
      "id": "24",
      "name_english": "Rangpur-6",
      "name": "রংপুর -৬",
      "total_population": 518307,
      "registered_voters": 359075,
      "urban_classification": "rural",
      "lat": 25.42000007629395,
      "long": 89.30999755859375,
      "division_id": "6",
      "division": "রংপুর",
      "division_english": "Rangpur",
      "district_id": "32",
      "district": "রংপুর",
      "district_english": "Rangpur"
    },
    {
      "id": "25",
      "name_english": "Kurigram-1",
      "name": "কুড়িগ্রাম -১",
      "total_population": 816423,
      "registered_voters": 565606,
      "urban_classification": "rural",
      "lat": 25.96999931335449,
      "long": 89.69000244140625,
      "division_id": "6",
      "division": "রংপুর",
      "division_english": "Rangpur",
      "district_id": "28",
      "district": "কুড়িগ্রাম",
      "district_english": "Kurigram"
    },
    {
      "id": "26",
      "name_english": "Kurigram-2",
      "name": "কুড়িগ্রাম - ২",
      "total_population": 872749,
      "registered_voters": 604627,
      "urban_classification": "rural",
      "lat": 25.80999946594238,
      "long": 89.63999938964844,
      "division_id": "6",
      "division": "রংপুর",
      "division_english": "Rangpur",
      "district_id": "28",
      "district": "কুড়িগ্রাম",
      "district_english": "Kurigram"
    },
    {
      "id": "27",
      "name_english": "Kurigram-3",
      "name": "কুড়িগ্রাম -৩",
      "total_population": 536031,
      "registered_voters": 371354,
      "urban_classification": "rural",
      "lat": 25.65999984741211,
      "long": 89.62000274658203,
      "division_id": "6",
      "division": "রংপুর",
      "division_english": "Rangpur",
      "district_id": "28",
      "district": "কুড়িগ্রাম",
      "district_english": "Kurigram"
    },
    {
      "id": "28",
      "name_english": "Kurigram-4",
      "name": "কুড়িগ্রাম -৪",
      "total_population": 511454,
      "registered_voters": 354328,
      "urban_classification": "rural",
      "lat": 25.56999969482422,
      "long": 89.83000183105469,
      "division_id": "6",
      "division": "রংপুর",
      "division_english": "Rangpur",
      "district_id": "28",
      "district": "কুড়িগ্রাম",
      "district_english": "Kurigram"
    },
    {
      "id": "29",
      "name_english": "Gaibandha-1",
      "name": "গাইবান্ধা-১",
      "total_population": 599955,
      "registered_voters": 415640,
      "urban_classification": "rural",
      "lat": 25.56999969482422,
      "long": 89.5199966430664,
      "division_id": "6",
      "division": "রংপুর",
      "division_english": "Rangpur",
      "district_id": "27",
      "district": "গাইবান্ধা",
      "district_english": "Gaibandha"
    },
    {
      "id": "30",
      "name_english": "Gaibandha-2",
      "name": "গাইবান্ধা -২",
      "total_population": 592024,
      "registered_voters": 410145,
      "urban_classification": "rural",
      "lat": 25.341918,
      "long": 89.496798,
      "division_id": "6",
      "division": "রংপুর",
      "division_english": "Rangpur",
      "district_id": "27",
      "district": "গাইবান্ধা",
      "district_english": "Gaibandha"
    },
    {
      "id": "31",
      "name_english": "Gaibandha-3",
      "name": "গাইবান্ধা -৩",
      "total_population": 654172,
      "registered_voters": 453201,
      "urban_classification": "rural",
      "lat": 25.38999938964844,
      "long": 89.47000122070312,
      "division_id": "6",
      "division": "রংপুর",
      "division_english": "Rangpur",
      "district_id": "27",
      "district": "গাইবান্ধা",
      "district_english": "Gaibandha"
    },
    {
      "id": "32",
      "name_english": "Gaibandha-4",
      "name": "গাইবান্ধা -৪",
      "total_population": 683358,
      "registered_voters": 473420,
      "urban_classification": "rural",
      "lat": 25.13999938964844,
      "long": 89.38999938964844,
      "division_id": "6",
      "division": "রংপুর",
      "division_english": "Rangpur",
      "district_id": "27",
      "district": "গাইবান্ধা",
      "district_english": "Gaibandha"
    },
    {
      "id": "33",
      "name_english": "Gaibandha-5",
      "name": "গাইবান্ধা -৫",
      "total_population": 555033,
      "registered_voters": 384519,
      "urban_classification": "rural",
      "lat": 25.11000061035156,
      "long": 89.58000183105469,
      "division_id": "6",
      "division": "রংপুর",
      "division_english": "Rangpur",
      "district_id": "27",
      "district": "গাইবান্ধা",
      "district_english": "Gaibandha"
    },
    {
      "id": "34",
      "name_english": "Joypurhat-1",
      "name": "জয়পুরহাট -১",
      "total_population": 706266,
      "registered_voters": 489290,
      "urban_classification": "rural",
      "lat": 25.10000038146973,
      "long": 89.02999877929688,
      "division_id": "5",
      "division": "রাজশাহী",
      "division_english": "Rajshahi",
      "district_id": "19",
      "district": "জয়পুরহাট",
      "district_english": "Joypurhat"
    },
    {
      "id": "35",
      "name_english": "Joypurhat-2",
      "name": "জয়পুরহাট -২",
      "total_population": 543611,
      "registered_voters": 376605,
      "urban_classification": "rural",
      "lat": 25.05999946594238,
      "long": 89.16999816894531,
      "division_id": "5",
      "division": "রাজশাহী",
      "division_english": "Rajshahi",
      "district_id": "19",
      "district": "জয়পুরহাট",
      "district_english": "Joypurhat"
    },
    {
      "id": "36",
      "name_english": "Bogra-1",
      "name": "বগুড়া -১",
      "total_population": 561780,
      "registered_voters": 389193,
      "urban_classification": "rural",
      "lat": 24.88999938964844,
      "long": 89.56999969482422,
      "division_id": "5",
      "division": "রাজশাহী",
      "division_english": "Rajshahi",
      "district_id": "18",
      "district": "বগুড়া",
      "district_english": "Bogura"
    },
    {
      "id": "37",
      "name_english": "Bogra-2",
      "name": "বগুড়া -২",
      "total_population": 524342,
      "registered_voters": 363256,
      "urban_classification": "rural",
      "lat": 25,
      "long": 89.31999969482422,
      "division_id": "5",
      "division": "রাজশাহী",
      "division_english": "Rajshahi",
      "district_id": "18",
      "district": "বগুড়া",
      "district_english": "Bogura"
    },
    {
      "id": "38",
      "name_english": "Bogra-3",
      "name": "বগুড়া-৩",
      "total_population": 524455,
      "registered_voters": 363334,
      "urban_classification": "rural",
      "lat": 24.81999969482422,
      "long": 89.04000091552734,
      "division_id": "5",
      "division": "রাজশাহী",
      "division_english": "Rajshahi",
      "district_id": "18",
      "district": "বগুড়া",
      "district_english": "Bogura"
    },
    {
      "id": "39",
      "name_english": "Bogra-4",
      "name": "বগুড়া-৪",
      "total_population": 552072,
      "registered_voters": 382467,
      "urban_classification": "rural",
      "lat": 24.82999992370605,
      "long": 89.26000213623047,
      "division_id": "5",
      "division": "রাজশাহী",
      "division_english": "Rajshahi",
      "district_id": "18",
      "district": "বগুড়া",
      "district_english": "Bogura"
    },
    {
      "id": "40",
      "name_english": "Bogra-5",
      "name": "বগুড়া-৫",
      "total_population": 841407,
      "registered_voters": 582914,
      "urban_classification": "rural",
      "lat": 24.67000007629395,
      "long": 89.41999816894531,
      "division_id": "5",
      "division": "রাজশাহী",
      "division_english": "Rajshahi",
      "district_id": "18",
      "district": "বগুড়া",
      "district_english": "Bogura"
    },
    {
      "id": "41",
      "name_english": "Bogra-6",
      "name": "বগুড়া-৬",
      "total_population": 685098,
      "registered_voters": 474626,
      "urban_classification": "rural",
      "lat": 24.85000038146973,
      "long": 89.37000274658203,
      "division_id": "5",
      "division": "রাজশাহী",
      "division_english": "Rajshahi",
      "district_id": "18",
      "district": "বগুড়া",
      "district_english": "Bogura"
    },
    {
      "id": "42",
      "name_english": "Bogra-7",
      "name": "বগুড়া-৭",
      "total_population": 816422,
      "registered_voters": 565605,
      "urban_classification": "rural",
      "lat": 24.8799991607666,
      "long": 89.44999694824219,
      "division_id": "5",
      "division": "রাজশাহী",
      "division_english": "Rajshahi",
      "district_id": "18",
      "district": "বগুড়া",
      "district_english": "Bogura"
    },
    {
      "id": "43",
      "name_english": "Chapainawabganj-1",
      "name": "চাঁপাইনবাবগঞ্জ-১",
      "total_population": 736138,
      "registered_voters": 509986,
      "urban_classification": "rural",
      "lat": 24.68000030517578,
      "long": 88.16000366210938,
      "division_id": "5",
      "division": "রাজশাহী",
      "division_english": "Rajshahi",
      "district_id": "22",
      "district": "নবাবগঞ্জ",
      "district_english": "Nawabganj"
    },
    {
      "id": "44",
      "name_english": "Chapainawabganj-2",
      "name": "চাঁপাইনবাবগঞ্জ -২",
      "total_population": 667005,
      "registered_voters": 462091,
      "urban_classification": "rural",
      "lat": 24.72999954223633,
      "long": 88.37999725341797,
      "division_id": "5",
      "division": "রাজশাহী",
      "division_english": "Rajshahi",
      "district_id": "22",
      "district": "নবাবগঞ্জ",
      "district_english": "Nawabganj"
    },
    {
      "id": "45",
      "name_english": "Chapainawabganj-3",
      "name": "চাঁপাইনবাবগঞ্জ -৩",
      "total_population": 676785,
      "registered_voters": 468867,
      "urban_classification": "rural",
      "lat": 24.60000038146973,
      "long": 88.27999877929688,
      "division_id": "5",
      "division": "রাজশাহী",
      "division_english": "Rajshahi",
      "district_id": "22",
      "district": "নবাবগঞ্জ",
      "district_english": "Nawabganj"
    },
    {
      "id": "46",
      "name_english": "Naogaon-1",
      "name": "নওগাঁ-১",
      "total_population": 614405,
      "registered_voters": 425650,
      "urban_classification": "rural",
      "lat": 24.889769,
      "long": 88.850593,
      "division_id": "5",
      "division": "রাজশাহী",
      "division_english": "Rajshahi",
      "district_id": "20",
      "district": "নওগাঁ",
      "district_english": "Naogaon"
    },
    {
      "id": "47",
      "name_english": "Naogaon-2",
      "name": "নওগাঁ-২",
      "total_population": 569780,
      "registered_voters": 394735,
      "urban_classification": "rural",
      "lat": 25.04999923706055,
      "long": 88.76000213623047,
      "division_id": "5",
      "division": "রাজশাহী",
      "division_english": "Rajshahi",
      "district_id": "20",
      "district": "নওগাঁ",
      "district_english": "Naogaon"
    },
    {
      "id": "48",
      "name_english": "Naogaon-3",
      "name": "নওগাঁ -৩",
      "total_population": 676707,
      "registered_voters": 468812,
      "urban_classification": "rural",
      "lat": 24.92000007629395,
      "long": 88.75,
      "division_id": "5",
      "division": "রাজশাহী",
      "division_english": "Rajshahi",
      "district_id": "20",
      "district": "নওগাঁ",
      "district_english": "Naogaon"
    },
    {
      "id": "49",
      "name_english": "Naogaon-4",
      "name": "নওগাঁ -৪",
      "total_population": 511642,
      "registered_voters": 354458,
      "urban_classification": "rural",
      "lat": 24.78000068664551,
      "long": 88.69999694824219,
      "division_id": "5",
      "division": "রাজশাহী",
      "division_english": "Rajshahi",
      "district_id": "20",
      "district": "নওগাঁ",
      "district_english": "Naogaon"
    },
    {
      "id": "50",
      "name_english": "Naogaon-5",
      "name": "নওগাঁ -৫",
      "total_population": 511645,
      "registered_voters": 354460,
      "urban_classification": "rural",
      "lat": 24.82999992370605,
      "long": 88.93000030517578,
      "division_id": "5",
      "division": "রাজশাহী",
      "division_english": "Rajshahi",
      "district_id": "20",
      "district": "নওগাঁ",
      "district_english": "Naogaon"
    },
    {
      "id": "51",
      "name_english": "Naogaon-6",
      "name": "নওগাঁ -৬",
      "total_population": 520959,
      "registered_voters": 360913,
      "urban_classification": "rural",
      "lat": 24.73999977111816,
      "long": 88.95999908447266,
      "division_id": "5",
      "division": "রাজশাহী",
      "division_english": "Rajshahi",
      "district_id": "20",
      "district": "নওগাঁ",
      "district_english": "Naogaon"
    },
    {
      "id": "52",
      "name_english": "Rajshahi-1",
      "name": "রাজশাহী -১",
      "total_population": 678151,
      "registered_voters": 469813,
      "urban_classification": "rural",
      "lat": 24.46999931335449,
      "long": 88.31999969482422,
      "division_id": "5",
      "division": "রাজশাহী",
      "division_english": "Rajshahi",
      "district_id": "24",
      "district": "রাজশাহী",
      "district_english": "Rajshahi"
    },
    {
      "id": "53",
      "name_english": "Rajshahi-2",
      "name": "রাজশাহী -২",
      "total_population": 562282,
      "registered_voters": 389540,
      "urban_classification": "urban",
      "lat": 24.3700008392334,
      "long": 88.5999984741211,
      "division_id": "5",
      "division": "রাজশাহী",
      "division_english": "Rajshahi",
      "district_id": "24",
      "district": "রাজশাহী",
      "district_english": "Rajshahi"
    },
    {
      "id": "54",
      "name_english": "Rajshahi-3",
      "name": "রাজশাহী -৩",
      "total_population": 632198,
      "registered_voters": 437977,
      "urban_classification": "rural",
      "lat": 24.45999908447266,
      "long": 88.61000061035156,
      "division_id": "5",
      "division": "রাজশাহী",
      "division_english": "Rajshahi",
      "district_id": "24",
      "district": "রাজশাহী",
      "district_english": "Rajshahi"
    },
    {
      "id": "55",
      "name_english": "Rajshahi-4",
      "name": "রাজশাহী -৪",
      "total_population": 541937,
      "registered_voters": 375446,
      "urban_classification": "rural",
      "lat": 24.4054,
      "long": 88.58631,
      "division_id": "5",
      "division": "রাজশাহী",
      "division_english": "Rajshahi",
      "district_id": "24",
      "district": "রাজশাহী",
      "district_english": "Rajshahi"
    },
    {
      "id": "56",
      "name_english": "Rajshahi-5",
      "name": "রাজশাহী -৫",
      "total_population": 533667,
      "registered_voters": 369717,
      "urban_classification": "rural",
      "lat": 24.3700008392334,
      "long": 88.83999633789062,
      "division_id": "5",
      "division": "রাজশাহী",
      "division_english": "Rajshahi",
      "district_id": "24",
      "district": "রাজশাহী",
      "district_english": "Rajshahi"
    },
    {
      "id": "57",
      "name_english": "Rajshahi-6",
      "name": "রাজশাহী -৬",
      "total_population": 538304,
      "registered_voters": 372929,
      "urban_classification": "rural",
      "lat": 24.29000091552734,
      "long": 88.75,
      "division_id": "5",
      "division": "রাজশাহী",
      "division_english": "Rajshahi",
      "district_id": "24",
      "district": "রাজশাহী",
      "district_english": "Rajshahi"
    },
    {
      "id": "58",
      "name_english": "Natore-1",
      "name": "নাটোর -১",
      "total_population": 551796,
      "registered_voters": 382276,
      "urban_classification": "rural",
      "lat": 24.18000030517578,
      "long": 88.95999908447266,
      "division_id": "5",
      "division": "রাজশাহী",
      "division_english": "Rajshahi",
      "district_id": "21",
      "district": "নাটোর",
      "district_english": "Natore"
    },
    {
      "id": "59",
      "name_english": "Natore-2",
      "name": "নাটোর -২",
      "total_population": 608513,
      "registered_voters": 421568,
      "urban_classification": "rural",
      "lat": 24.42000007629395,
      "long": 89,
      "division_id": "5",
      "division": "রাজশাহী",
      "division_english": "Rajshahi",
      "district_id": "21",
      "district": "নাটোর",
      "district_english": "Natore"
    },
    {
      "id": "60",
      "name_english": "Natore-3",
      "name": "নাটোর -৩",
      "total_population": 488559,
      "registered_voters": 338466,
      "urban_classification": "rural",
      "lat": 24.5,
      "long": 89.1500015258789,
      "division_id": "5",
      "division": "রাজশাহী",
      "division_english": "Rajshahi",
      "district_id": "21",
      "district": "নাটোর",
      "district_english": "Natore"
    },
    {
      "id": "61",
      "name_english": "Natore-4",
      "name": "নাটোর -৪",
      "total_population": 657694,
      "registered_voters": 455641,
      "urban_classification": "rural",
      "lat": 24.30999946594238,
      "long": 89.16999816894531,
      "division_id": "5",
      "division": "রাজশাহী",
      "division_english": "Rajshahi",
      "district_id": "21",
      "district": "নাটোর",
      "district_english": "Natore"
    },
    {
      "id": "62",
      "name_english": "Sirajganj-1",
      "name": "সিরাজগঞ্জ -১",
      "total_population": 611372,
      "registered_voters": 423550,
      "urban_classification": "rural",
      "lat": 24.64999961853027,
      "long": 89.63999938964844,
      "division_id": "5",
      "division": "রাজশাহী",
      "division_english": "Rajshahi",
      "district_id": "25",
      "district": "সিরাজগঞ্জ",
      "district_english": "Sirajgonj"
    },
    {
      "id": "63",
      "name_english": "Sirajganj-2",
      "name": "সিরাজগঞ্জ -২",
      "total_population": 621134,
      "registered_voters": 430313,
      "urban_classification": "urban",
      "lat": 24.45000076293945,
      "long": 89.69999694824219,
      "division_id": "5",
      "division": "রাজশাহী",
      "division_english": "Rajshahi",
      "district_id": "25",
      "district": "সিরাজগঞ্জ",
      "district_english": "Sirajgonj"
    },
    {
      "id": "64",
      "name_english": "Sirajganj-3",
      "name": "সিরাজগঞ্জ-৩",
      "total_population": 650196,
      "registered_voters": 450446,
      "urban_classification": "rural",
      "lat": 24.51000022888184,
      "long": 89.52999877929688,
      "division_id": "5",
      "division": "রাজশাহী",
      "division_english": "Rajshahi",
      "district_id": "25",
      "district": "সিরাজগঞ্জ",
      "district_english": "Sirajgonj"
    },
    {
      "id": "65",
      "name_english": "Sirajganj-4",
      "name": "সিরাজগঞ্জ-৪",
      "total_population": 691882,
      "registered_voters": 479325,
      "urban_classification": "rural",
      "lat": 24.490899,
      "long": 89.604809,
      "division_id": "5",
      "division": "রাজশাহী",
      "division_english": "Rajshahi",
      "district_id": "25",
      "district": "সিরাজগঞ্জ",
      "district_english": "Sirajgonj"
    },
    {
      "id": "66",
      "name_english": "Sirajganj-5",
      "name": "সিরাজগঞ্জ -৫",
      "total_population": 601295,
      "registered_voters": 416568,
      "urban_classification": "rural",
      "lat": 24.29999923706055,
      "long": 89.69999694824219,
      "division_id": "5",
      "division": "রাজশাহী",
      "division_english": "Rajshahi",
      "district_id": "25",
      "district": "সিরাজগঞ্জ",
      "district_english": "Sirajgonj"
    },
    {
      "id": "67",
      "name_english": "Sirajganj-6",
      "name": "সিরাজগঞ্জ -৬",
      "total_population": 709644,
      "registered_voters": 491631,
      "urban_classification": "rural",
      "lat": 24.442637,
      "long": 89.622888,
      "division_id": "5",
      "division": "রাজশাহী",
      "division_english": "Rajshahi",
      "district_id": "25",
      "district": "সিরাজগঞ্জ",
      "district_english": "Sirajgonj"
    },
    {
      "id": "68",
      "name_english": "Pabna-1",
      "name": "পাবনা -১",
      "total_population": 668163,
      "registered_voters": 462893,
      "urban_classification": "rural",
      "lat": 24.04999923706055,
      "long": 89.55000305175781,
      "division_id": "5",
      "division": "রাজশাহী",
      "division_english": "Rajshahi",
      "district_id": "23",
      "district": "পাবনা",
      "district_english": "Pabna"
    },
    {
      "id": "69",
      "name_english": "Pabna-2",
      "name": "পাবনা -২",
      "total_population": 532096,
      "registered_voters": 368628,
      "urban_classification": "rural",
      "lat": 23.94000053405762,
      "long": 89.41000366210938,
      "division_id": "5",
      "division": "রাজশাহী",
      "division_english": "Rajshahi",
      "district_id": "23",
      "district": "পাবনা",
      "district_english": "Pabna"
    },
    {
      "id": "70",
      "name_english": "Pabna-3",
      "name": "পাবনা-৩",
      "total_population": 712618,
      "registered_voters": 493691,
      "urban_classification": "rural",
      "lat": 24.22999954223633,
      "long": 89.29000091552734,
      "division_id": "5",
      "division": "রাজশাহী",
      "division_english": "Rajshahi",
      "district_id": "23",
      "district": "পাবনা",
      "district_english": "Pabna"
    },
    {
      "id": "71",
      "name_english": "Pabna-4",
      "name": "পাবনা-৪",
      "total_population": 641233,
      "registered_voters": 444237,
      "urban_classification": "rural",
      "lat": 24.1200008392334,
      "long": 89.05999755859375,
      "division_id": "5",
      "division": "রাজশাহী",
      "division_english": "Rajshahi",
      "district_id": "23",
      "district": "পাবনা",
      "district_english": "Pabna"
    },
    {
      "id": "72",
      "name_english": "Pabna-5",
      "name": "পাবনা-৫",
      "total_population": 771112,
      "registered_voters": 534215,
      "urban_classification": "rural",
      "lat": 24,
      "long": 89.2300033569336,
      "division_id": "5",
      "division": "রাজশাহী",
      "division_english": "Rajshahi",
      "district_id": "23",
      "district": "পাবনা",
      "district_english": "Pabna"
    },
    {
      "id": "73",
      "name_english": "Meherpur-1",
      "name": "মেহেরপুর -১",
      "total_population": 476932,
      "registered_voters": 330411,
      "urban_classification": "rural",
      "lat": 23.76000022888184,
      "long": 88.62999725341797,
      "division_id": "4",
      "division": "খুলনা",
      "division_english": "Khulna",
      "district_id": "62",
      "district": "মেহেরপুর",
      "district_english": "Meherpur"
    },
    {
      "id": "74",
      "name_english": "Meherpur-2",
      "name": "মেহেরপুর -২",
      "total_population": 400305,
      "registered_voters": 277325,
      "urban_classification": "rural",
      "lat": 23.80999946594238,
      "long": 88.76000213623047,
      "division_id": "4",
      "division": "খুলনা",
      "division_english": "Khulna",
      "district_id": "62",
      "district": "মেহেরপুর",
      "district_english": "Meherpur"
    },
    {
      "id": "75",
      "name_english": "Kushtia-1",
      "name": "কুষ্টিয়া -১",
      "total_population": 594596,
      "registered_voters": 411927,
      "urban_classification": "rural",
      "lat": 24,
      "long": 88.87999725341797,
      "division_id": "4",
      "division": "খুলনা",
      "division_english": "Khulna",
      "district_id": "60",
      "district": "কুষ্টিয়া",
      "district_english": "Kushtia"
    },
    {
      "id": "76",
      "name_english": "Kushtia-2",
      "name": "কুষ্টিয়া -২",
      "total_population": 707048,
      "registered_voters": 489832,
      "urban_classification": "rural",
      "lat": 23.94000053405762,
      "long": 89,
      "division_id": "4",
      "division": "খুলনা",
      "division_english": "Khulna",
      "district_id": "60",
      "district": "কুষ্টিয়া",
      "district_english": "Kushtia"
    },
    {
      "id": "77",
      "name_english": "Kushtia-3",
      "name": "কুষ্টিয়া -৩",
      "total_population": 659570,
      "registered_voters": 456940,
      "urban_classification": "rural",
      "lat": 23.90999984741211,
      "long": 89.12000274658203,
      "division_id": "4",
      "division": "খুলনা",
      "division_english": "Khulna",
      "district_id": "60",
      "district": "কুষ্টিয়া",
      "district_english": "Kushtia"
    },
    {
      "id": "78",
      "name_english": "Kushtia-4",
      "name": "কুষ্টিয়া -৪",
      "total_population": 621335,
      "registered_voters": 430451,
      "urban_classification": "rural",
      "lat": 23.86000061035156,
      "long": 89.23999786376953,
      "division_id": "4",
      "division": "খুলনা",
      "division_english": "Khulna",
      "district_id": "60",
      "district": "কুষ্টিয়া",
      "district_english": "Kushtia"
    },
    {
      "id": "79",
      "name_english": "Chuadanga-1",
      "name": "চুয়াডাঙ্গা -১",
      "total_population": 774549,
      "registered_voters": 536596,
      "urban_classification": "rural",
      "lat": 23.63999938964844,
      "long": 88.8499984741211,
      "division_id": "4",
      "division": "খুলনা",
      "division_english": "Khulna",
      "district_id": "56",
      "district": "চুয়াডাঙ্গা",
      "district_english": "Chuadanga"
    },
    {
      "id": "80",
      "name_english": "Chuadanga-2",
      "name": "চুয়াডাঙ্গা -২",
      "total_population": 734184,
      "registered_voters": 508632,
      "urban_classification": "rural",
      "lat": 23.60000038146973,
      "long": 88.77999877929688,
      "division_id": "4",
      "division": "খুলনা",
      "division_english": "Khulna",
      "district_id": "56",
      "district": "চুয়াডাঙ্গা",
      "district_english": "Chuadanga"
    },
    {
      "id": "81",
      "name_english": "Jhenaidah-1",
      "name": "ঝিনাইদহ -১",
      "total_population": 488836,
      "registered_voters": 338658,
      "urban_classification": "rural",
      "lat": 23.68490028381348,
      "long": 89.25029754638672,
      "division_id": "4",
      "division": "খুলনা",
      "division_english": "Khulna",
      "district_id": "58",
      "district": "ঝিনাইদহ",
      "district_english": "Jhenaidah"
    },
    {
      "id": "82",
      "name_english": "Jhenaidah-2",
      "name": "ঝিনাইদহ -২",
      "total_population": 749270,
      "registered_voters": 519083,
      "urban_classification": "rural",
      "lat": 23.54000091552734,
      "long": 89.18000030517578,
      "division_id": "4",
      "division": "খুলনা",
      "division_english": "Khulna",
      "district_id": "58",
      "district": "ঝিনাইদহ",
      "district_english": "Jhenaidah"
    },
    {
      "id": "83",
      "name_english": "Jhenaidah-3",
      "name": "ঝিনাইদহ-৩",
      "total_population": 638469,
      "registered_voters": 442322,
      "urban_classification": "rural",
      "lat": 23.36000061035156,
      "long": 88.91999816894531,
      "division_id": "4",
      "division": "খুলনা",
      "division_english": "Khulna",
      "district_id": "58",
      "district": "ঝিনাইদহ",
      "district_english": "Jhenaidah"
    },
    {
      "id": "84",
      "name_english": "Jhenaidah-4",
      "name": "ঝিনাইদহ -৪",
      "total_population": 498188,
      "registered_voters": 345138,
      "urban_classification": "rural",
      "lat": 23.42000007629395,
      "long": 89.13999938964844,
      "division_id": "4",
      "division": "খুলনা",
      "division_english": "Khulna",
      "district_id": "58",
      "district": "ঝিনাইদহ",
      "district_english": "Jhenaidah"
    },
    {
      "id": "85",
      "name_english": "Jessore-1",
      "name": "যশোর -১",
      "total_population": 466132,
      "registered_voters": 322929,
      "urban_classification": "rural",
      "lat": 23.04999923706055,
      "long": 88.94999694824219,
      "division_id": "4",
      "division": "খুলনা",
      "division_english": "Khulna",
      "district_id": "57",
      "district": "যশোর",
      "district_english": "Jashore"
    },
    {
      "id": "86",
      "name_english": "Jessore-2",
      "name": "যশোর-২",
      "total_population": 717987,
      "registered_voters": 497410,
      "urban_classification": "rural",
      "lat": 23.10580062866211,
      "long": 89.10379791259766,
      "division_id": "4",
      "division": "খুলনা",
      "division_english": "Khulna",
      "district_id": "57",
      "district": "যশোর",
      "district_english": "Jashore"
    },
    {
      "id": "87",
      "name_english": "Jessore-3",
      "name": "যশোর -৩",
      "total_population": 925789,
      "registered_voters": 641373,
      "urban_classification": "rural",
      "lat": 23.15999984741211,
      "long": 89.20999908447266,
      "division_id": "4",
      "division": "খুলনা",
      "division_english": "Khulna",
      "district_id": "57",
      "district": "যশোর",
      "district_english": "Jashore"
    },
    {
      "id": "88",
      "name_english": "Jessore-4",
      "name": "যশোর -৪",
      "total_population": 684413,
      "registered_voters": 474151,
      "urban_classification": "rural",
      "lat": 23.21999931335449,
      "long": 89.3499984741211,
      "division_id": "4",
      "division": "খুলনা",
      "division_english": "Khulna",
      "district_id": "57",
      "district": "যশোর",
      "district_english": "Jashore"
    },
    {
      "id": "89",
      "name_english": "Jessore-5",
      "name": "যশোর -৫",
      "total_population": 564461,
      "registered_voters": 391050,
      "urban_classification": "rural",
      "lat": 23.02000045776367,
      "long": 89.2300033569336,
      "division_id": "4",
      "division": "খুলনা",
      "division_english": "Khulna",
      "district_id": "57",
      "district": "যশোর",
      "district_english": "Jashore"
    },
    {
      "id": "90",
      "name_english": "Jessore-6",
      "name": "যশোর -৬",
      "total_population": 342425,
      "registered_voters": 237227,
      "urban_classification": "rural",
      "lat": 22.90999984741211,
      "long": 89.22000122070312,
      "division_id": "4",
      "division": "খুলনা",
      "division_english": "Khulna",
      "district_id": "57",
      "district": "যশোর",
      "district_english": "Jashore"
    },
    {
      "id": "91",
      "name_english": "Magura-1",
      "name": "মাগুরা -১",
      "total_population": 708459,
      "registered_voters": 490809,
      "urban_classification": "rural",
      "lat": 23.48999977111816,
      "long": 89.41999816894531,
      "division_id": "4",
      "division": "খুলনা",
      "division_english": "Khulna",
      "district_id": "61",
      "district": "মাগুরা",
      "district_english": "Magura"
    },
    {
      "id": "92",
      "name_english": "Magura-2",
      "name": "মাগুরা -২",
      "total_population": 592533,
      "registered_voters": 410498,
      "urban_classification": "rural",
      "lat": 23.48999977111816,
      "long": 89.41999816894531,
      "division_id": "4",
      "division": "খুলনা",
      "division_english": "Khulna",
      "district_id": "61",
      "district": "মাগুরা",
      "district_english": "Magura"
    },
    {
      "id": "93",
      "name_english": "Narail-1",
      "name": "নড়াইল -১",
      "total_population": 421330,
      "registered_voters": 291891,
      "urban_classification": "rural",
      "lat": 23.04000091552734,
      "long": 89.62999725341797,
      "division_id": "4",
      "division": "খুলনা",
      "division_english": "Khulna",
      "district_id": "63",
      "district": "নড়াইল",
      "district_english": "Narail"
    },
    {
      "id": "94",
      "name_english": "Narail-2",
      "name": "নড়াইল -২",
      "total_population": 562266,
      "registered_voters": 389530,
      "urban_classification": "rural",
      "lat": 23.18000030517578,
      "long": 89.6500015258789,
      "division_id": "4",
      "division": "খুলনা",
      "division_english": "Khulna",
      "district_id": "63",
      "district": "নড়াইল",
      "district_english": "Narail"
    },
    {
      "id": "95",
      "name_english": "Bagerhat-1",
      "name": "বাগেরহাট -১",
      "total_population": 534819,
      "registered_voters": 370515,
      "urban_classification": "rural",
      "lat": 22.78000068664551,
      "long": 89.69999694824219,
      "division_id": "4",
      "division": "খুলনা",
      "division_english": "Khulna",
      "district_id": "55",
      "district": "বাগেরহাট",
      "district_english": "Bagerhat"
    },
    {
      "id": "96",
      "name_english": "Bagerhat-2",
      "name": "বাগেরহাট -২",
      "total_population": 502567,
      "registered_voters": 348171,
      "urban_classification": "rural",
      "lat": 22.65999984741211,
      "long": 89.7699966430664,
      "division_id": "4",
      "division": "খুলনা",
      "division_english": "Khulna",
      "district_id": "55",
      "district": "বাগেরহাট",
      "district_english": "Bagerhat"
    },
    {
      "id": "97",
      "name_english": "Bagerhat-3",
      "name": "বাগেরহাট-৩",
      "total_population": 400138,
      "registered_voters": 277210,
      "urban_classification": "rural",
      "lat": 22.55999946594238,
      "long": 89.6500015258789,
      "division_id": "4",
      "division": "খুলনা",
      "division_english": "Khulna",
      "district_id": "55",
      "district": "বাগেরহাট",
      "district_english": "Bagerhat"
    },
    {
      "id": "98",
      "name_english": "Khulna-1",
      "name": "খুলনা -১",
      "total_population": 458915,
      "registered_voters": 317930,
      "urban_classification": "rural",
      "lat": 22.73999977111816,
      "long": 89.5199966430664,
      "division_id": "4",
      "division": "খুলনা",
      "division_english": "Khulna",
      "district_id": "59",
      "district": "খুলনা",
      "district_english": "Khulna"
    },
    {
      "id": "99",
      "name_english": "Khulna-2",
      "name": "খুলনা -২",
      "total_population": 520292,
      "registered_voters": 360451,
      "urban_classification": "urban",
      "lat": 22.81999969482422,
      "long": 89.55999755859375,
      "division_id": "4",
      "division": "খুলনা",
      "division_english": "Khulna",
      "district_id": "59",
      "district": "খুলনা",
      "district_english": "Khulna"
    },
    {
      "id": "100",
      "name_english": "Khulna-3",
      "name": "খুলনা -৩",
      "total_population": 400292,
      "registered_voters": 277316,
      "urban_classification": "urban",
      "lat": 22.85000038146973,
      "long": 89.54000091552734,
      "division_id": "4",
      "division": "খুলনা",
      "division_english": "Khulna",
      "district_id": "59",
      "district": "খুলনা",
      "district_english": "Khulna"
    },
    {
      "id": "101",
      "name_english": "Khulna-4",
      "name": "খুলনা -৪",
      "total_population": 549233,
      "registered_voters": 380501,
      "urban_classification": "rural",
      "lat": 22.79999923706055,
      "long": 89.63999938964844,
      "division_id": "4",
      "division": "খুলনা",
      "division_english": "Khulna",
      "district_id": "59",
      "district": "খুলনা",
      "district_english": "Khulna"
    },
    {
      "id": "102",
      "name_english": "Khulna-5",
      "name": "খুলনা -৫",
      "total_population": 609369,
      "registered_voters": 422162,
      "urban_classification": "rural",
      "lat": 22.80999946594238,
      "long": 89.41999816894531,
      "division_id": "4",
      "division": "খুলনা",
      "division_english": "Khulna",
      "district_id": "59",
      "district": "খুলনা",
      "district_english": "Khulna"
    },
    {
      "id": "103",
      "name_english": "Khulna-6",
      "name": "খুলনা -৬",
      "total_population": 647878,
      "registered_voters": 448840,
      "urban_classification": "rural",
      "lat": 22.59000015258789,
      "long": 89.31999969482422,
      "division_id": "4",
      "division": "খুলনা",
      "division_english": "Khulna",
      "district_id": "59",
      "district": "খুলনা",
      "district_english": "Khulna"
    },
    {
      "id": "104",
      "name_english": "Satkhira-1",
      "name": "সাতক্ষীরা -১",
      "total_population": 748417,
      "registered_voters": 518492,
      "urban_classification": "rural",
      "lat": 22.75,
      "long": 89.26000213623047,
      "division_id": "4",
      "division": "খুলনা",
      "division_english": "Khulna",
      "district_id": "64",
      "district": "সাতক্ষীরা",
      "district_english": "Satkhira"
    },
    {
      "id": "105",
      "name_english": "Satkhira-2",
      "name": "সাতক্ষীরা -২",
      "total_population": 630200,
      "registered_voters": 436593,
      "urban_classification": "rural",
      "lat": 22.71999931335449,
      "long": 89.06999969482422,
      "division_id": "4",
      "division": "খুলনা",
      "division_english": "Khulna",
      "district_id": "64",
      "district": "সাতক্ষীরা",
      "district_english": "Satkhira"
    },
    {
      "id": "106",
      "name_english": "Satkhira-3",
      "name": "সাতক্ষীরা -৩",
      "total_population": 685200,
      "registered_voters": 474696,
      "urban_classification": "rural",
      "lat": 22.54999923706055,
      "long": 89.18000030517578,
      "division_id": "4",
      "division": "খুলনা",
      "division_english": "Khulna",
      "district_id": "64",
      "district": "সাতক্ষীরা",
      "district_english": "Satkhira"
    },
    {
      "id": "107",
      "name_english": "Satkhira-4",
      "name": "সাতক্ষীরা -৪",
      "total_population": 696574,
      "registered_voters": 482576,
      "urban_classification": "rural",
      "lat": 22.34000015258789,
      "long": 89.0999984741211,
      "division_id": "4",
      "division": "খুলনা",
      "division_english": "Khulna",
      "district_id": "64",
      "district": "সাতক্ষীরা",
      "district_english": "Satkhira"
    },
    {
      "id": "108",
      "name_english": "Barguna-1",
      "name": "বরগুনা -১",
      "total_population": 733079,
      "registered_voters": 507866,
      "urban_classification": "rural",
      "lat": 22.13999938964844,
      "long": 90.2300033569336,
      "division_id": "1",
      "division": "বরিশাল",
      "division_english": "Barishal",
      "district_id": "34",
      "district": "বরগুনা",
      "district_english": "Barguna"
    },
    {
      "id": "109",
      "name_english": "Barguna-2",
      "name": "বরগুনা -২",
      "total_population": 474740,
      "registered_voters": 328893,
      "urban_classification": "rural",
      "lat": 22.04000091552734,
      "long": 89.97000122070312,
      "division_id": "1",
      "division": "বরিশাল",
      "division_english": "Barishal",
      "district_id": "34",
      "district": "বরগুনা",
      "district_english": "Barguna"
    },
    {
      "id": "110",
      "name_english": "Patuakhali-1",
      "name": "পটুয়াখালী -১",
      "total_population": 696057,
      "registered_voters": 482218,
      "urban_classification": "rural",
      "lat": 22.36000061035156,
      "long": 90.33000183105469,
      "division_id": "1",
      "division": "বরিশাল",
      "division_english": "Barishal",
      "district_id": "38",
      "district": "পটুয়াখালী",
      "district_english": "Patuakhali"
    },
    {
      "id": "111",
      "name_english": "Patuakhali-2",
      "name": "পটুয়াখালী -২",
      "total_population": 445564,
      "registered_voters": 308680,
      "urban_classification": "rural",
      "lat": 22.40999984741211,
      "long": 90.55999755859375,
      "division_id": "1",
      "division": "বরিশাল",
      "division_english": "Barishal",
      "district_id": "38",
      "district": "পটুয়াখালী",
      "district_english": "Patuakhali"
    },
    {
      "id": "112",
      "name_english": "Patuakhali-3",
      "name": "পটুয়াখালী -৩",
      "total_population": 528357,
      "registered_voters": 366038,
      "urban_classification": "rural",
      "lat": 22.17000007629395,
      "long": 90.41000366210938,
      "division_id": "1",
      "division": "বরিশাল",
      "division_english": "Barishal",
      "district_id": "38",
      "district": "পটুয়াখালী",
      "district_english": "Patuakhali"
    },
    {
      "id": "113",
      "name_english": "Patuakhali-4",
      "name": "পটুয়াখালী -৪",
      "total_population": 440543,
      "registered_voters": 305202,
      "urban_classification": "rural",
      "lat": 21.98999977111816,
      "long": 90.22000122070312,
      "division_id": "1",
      "division": "বরিশাল",
      "division_english": "Barishal",
      "district_id": "38",
      "district": "পটুয়াখালী",
      "district_english": "Patuakhali"
    },
    {
      "id": "114",
      "name_english": "Bhola-1",
      "name": "ভোলা -১",
      "total_population": 548476,
      "registered_voters": 379976,
      "urban_classification": "rural",
      "lat": 22.69000053405762,
      "long": 90.6500015258789,
      "division_id": "1",
      "division": "বরিশাল",
      "division_english": "Barishal",
      "district_id": "36",
      "district": "ভোলা",
      "district_english": "Bhola"
    },
    {
      "id": "115",
      "name_english": "Bhola-2",
      "name": "ভোলা -২",
      "total_population": 525785,
      "registered_voters": 364256,
      "urban_classification": "rural",
      "lat": 22.5,
      "long": 90.72000122070312,
      "division_id": "1",
      "division": "বরিশাল",
      "division_english": "Barishal",
      "district_id": "36",
      "district": "ভোলা",
      "district_english": "Bhola"
    },
    {
      "id": "116",
      "name_english": "Bhola-3",
      "name": "ভোলা -৩",
      "total_population": 519387,
      "registered_voters": 359823,
      "urban_classification": "rural",
      "lat": 22.32999992370605,
      "long": 90.7300033569336,
      "division_id": "1",
      "division": "বরিশাল",
      "division_english": "Barishal",
      "district_id": "36",
      "district": "ভোলা",
      "district_english": "Bhola"
    },
    {
      "id": "117",
      "name_english": "Bhola-4",
      "name": "ভোলা -৪",
      "total_population": 659745,
      "registered_voters": 457062,
      "urban_classification": "rural",
      "lat": 22.19000053405762,
      "long": 90.76000213623047,
      "division_id": "1",
      "division": "বরিশাল",
      "division_english": "Barishal",
      "district_id": "36",
      "district": "ভোলা",
      "district_english": "Bhola"
    },
    {
      "id": "118",
      "name_english": "Barishal-1",
      "name": "বরিশাল -১",
      "total_population": 456462,
      "registered_voters": 316230,
      "urban_classification": "rural",
      "lat": 22.96999931335449,
      "long": 90.2300033569336,
      "division_id": "1",
      "division": "বরিশাল",
      "division_english": "Barishal",
      "district_id": "35",
      "district": "বরিশাল",
      "district_english": "Barishal"
    },
    {
      "id": "119",
      "name_english": "Barishal-2",
      "name": "বরিশাল -২",
      "total_population": 535378,
      "registered_voters": 370902,
      "urban_classification": "rural",
      "lat": 22.81999969482422,
      "long": 90.25,
      "division_id": "1",
      "division": "বরিশাল",
      "division_english": "Barishal",
      "district_id": "35",
      "district": "বরিশাল",
      "district_english": "Barishal"
    },
    {
      "id": "120",
      "name_english": "Barishal-3",
      "name": "বরিশাল -৩",
      "total_population": 449369,
      "registered_voters": 311316,
      "urban_classification": "rural",
      "lat": 22.90999984741211,
      "long": 90.41000366210938,
      "division_id": "1",
      "division": "বরিশাল",
      "division_english": "Barishal",
      "district_id": "35",
      "district": "বরিশাল",
      "district_english": "Barishal"
    },
    {
      "id": "121",
      "name_english": "Barishal-4",
      "name": "বরিশাল -৪",
      "total_population": 572401,
      "registered_voters": 396551,
      "urban_classification": "rural",
      "lat": 22.82999992370605,
      "long": 90.52999877929688,
      "division_id": "1",
      "division": "বরিশাল",
      "division_english": "Barishal",
      "district_id": "35",
      "district": "বরিশাল",
      "district_english": "Barishal"
    },
    {
      "id": "122",
      "name_english": "Barishal-5",
      "name": "বরিশাল -৫",
      "total_population": 703204,
      "registered_voters": 487169,
      "urban_classification": "urban",
      "lat": 22.70000076293945,
      "long": 90.37000274658203,
      "division_id": "1",
      "division": "বরিশাল",
      "division_english": "Barishal",
      "district_id": "35",
      "district": "বরিশাল",
      "district_english": "Barishal"
    },
    {
      "id": "123",
      "name_english": "Barishal-6",
      "name": "বরিশাল -৬",
      "total_population": 106140,
      "registered_voters": 73532,
      "urban_classification": "rural",
      "lat": 22.54000091552734,
      "long": 90.33999633789062,
      "division_id": "1",
      "division": "বরিশাল",
      "division_english": "Barishal",
      "district_id": "35",
      "district": "বরিশাল",
      "district_english": "Barishal"
    },
    {
      "id": "124",
      "name_english": "Jhalokathi-1",
      "name": "ঝালকাঠি -১",
      "total_population": 316453,
      "registered_voters": 219234,
      "urban_classification": "rural",
      "lat": 22.56999969482422,
      "long": 90.13999938964844,
      "division_id": "1",
      "division": "বরিশাল",
      "division_english": "Barishal",
      "district_id": "37",
      "district": "ঝালকাঠি",
      "district_english": "Jhalokati"
    },
    {
      "id": "125",
      "name_english": "Jhalokathi-2",
      "name": "ঝালকাঠি -২",
      "total_population": 513726,
      "registered_voters": 355901,
      "urban_classification": "rural",
      "lat": 22.63999938964844,
      "long": 90.19999694824219,
      "division_id": "1",
      "division": "বরিশাল",
      "division_english": "Barishal",
      "district_id": "37",
      "district": "ঝালকাঠি",
      "district_english": "Jhalokati"
    },
    {
      "id": "126",
      "name_english": "Pirojpur-1",
      "name": "পিরোজপুর -১",
      "total_population": 741399,
      "registered_voters": 513630,
      "urban_classification": "rural",
      "lat": 22.57999992370605,
      "long": 89.9800033569336,
      "division_id": "1",
      "division": "বরিশাল",
      "division_english": "Barishal",
      "district_id": "39",
      "district": "পিরোজপুর",
      "district_english": "Pirojpur"
    },
    {
      "id": "127",
      "name_english": "Pirojpur-2",
      "name": "পিরোজপুর -২",
      "total_population": 390127,
      "registered_voters": 270274,
      "urban_classification": "rural",
      "lat": 22.48999977111816,
      "long": 90.05999755859375,
      "division_id": "1",
      "division": "বরিশাল",
      "division_english": "Barishal",
      "district_id": "39",
      "district": "পিরোজপুর",
      "district_english": "Pirojpur"
    },
    {
      "id": "128",
      "name_english": "Pirojpur-3",
      "name": "পিরোজপুর -৩",
      "total_population": 335866,
      "registered_voters": 232683,
      "urban_classification": "rural",
      "lat": 22.29000091552734,
      "long": 89.95999908447266,
      "division_id": "1",
      "division": "বরিশাল",
      "division_english": "Barishal",
      "district_id": "39",
      "district": "পিরোজপুর",
      "district_english": "Pirojpur"
    },
    {
      "id": "129",
      "name_english": "Tangail-1",
      "name": "টাঙ্গাইল -১",
      "total_population": 645670,
      "registered_voters": 447310,
      "urban_classification": "rural",
      "lat": 24.60000038146973,
      "long": 90.02999877929688,
      "division_id": "3",
      "division": "ঢাকা",
      "division_english": "Dhaka",
      "district_id": "17",
      "district": "টাঙ্গাইল",
      "district_english": "Tangail"
    },
    {
      "id": "130",
      "name_english": "Tangail-2",
      "name": "টাঙ্গাইল -২",
      "total_population": 616798,
      "registered_voters": 427308,
      "urban_classification": "rural",
      "lat": 24.54999923706055,
      "long": 89.93000030517578,
      "division_id": "3",
      "division": "ঢাকা",
      "division_english": "Dhaka",
      "district_id": "17",
      "district": "টাঙ্গাইল",
      "district_english": "Tangail"
    },
    {
      "id": "131",
      "name_english": "Tangail-3",
      "name": "টাঙ্গাইল -৩",
      "total_population": 563509,
      "registered_voters": 390391,
      "urban_classification": "rural",
      "lat": 24.47999954223633,
      "long": 89.97000122070312,
      "division_id": "3",
      "division": "ঢাকা",
      "division_english": "Dhaka",
      "district_id": "17",
      "district": "টাঙ্গাইল",
      "district_english": "Tangail"
    },
    {
      "id": "132",
      "name_english": "Tangail-4",
      "name": "টাঙ্গাইল -৪",
      "total_population": 550316,
      "registered_voters": 381251,
      "urban_classification": "rural",
      "lat": 24.3799991607666,
      "long": 89.98999786376953,
      "division_id": "3",
      "division": "ঢাকা",
      "division_english": "Dhaka",
      "district_id": "17",
      "district": "টাঙ্গাইল",
      "district_english": "Tangail"
    },
    {
      "id": "133",
      "name_english": "Tangail-5",
      "name": "টাঙ্গাইল -৫",
      "total_population": 672818,
      "registered_voters": 466118,
      "urban_classification": "rural",
      "lat": 24.25,
      "long": 89.91999816894531,
      "division_id": "3",
      "division": "ঢাকা",
      "division_english": "Dhaka",
      "district_id": "17",
      "district": "টাঙ্গাইল",
      "district_english": "Tangail"
    },
    {
      "id": "134",
      "name_english": "Tangail-6",
      "name": "টাঙ্গাইল -৬",
      "total_population": 690699,
      "registered_voters": 478506,
      "urban_classification": "rural",
      "lat": 24.05999946594238,
      "long": 89.87999725341797,
      "division_id": "3",
      "division": "ঢাকা",
      "division_english": "Dhaka",
      "district_id": "17",
      "district": "টাঙ্গাইল",
      "district_english": "Tangail"
    },
    {
      "id": "135",
      "name_english": "Tangail-7",
      "name": "টাঙ্গাইল -৭",
      "total_population": 570809,
      "registered_voters": 395448,
      "urban_classification": "rural",
      "lat": 24.10000038146973,
      "long": 90.0999984741211,
      "division_id": "3",
      "division": "ঢাকা",
      "division_english": "Dhaka",
      "district_id": "17",
      "district": "টাঙ্গাইল",
      "district_english": "Tangail"
    },
    {
      "id": "136",
      "name_english": "Tangail-8",
      "name": "টাঙ্গাইল -৮",
      "total_population": 613217,
      "registered_voters": 424828,
      "urban_classification": "rural",
      "lat": 24.31999969482422,
      "long": 90.16999816894531,
      "division_id": "3",
      "division": "ঢাকা",
      "division_english": "Dhaka",
      "district_id": "17",
      "district": "টাঙ্গাইল",
      "district_english": "Tangail"
    },
    {
      "id": "137",
      "name_english": "Jamalpur-1",
      "name": "জামালপুর -১",
      "total_population": 612581,
      "registered_voters": 424387,
      "urban_classification": "rural",
      "lat": 25.15999984741211,
      "long": 89.76000213623047,
      "division_id": "8",
      "division": "ময়মনসিংহ",
      "division_english": "Mymensingh",
      "district_id": "5",
      "district": "জামালপুর",
      "district_english": "Jamalpur"
    },
    {
      "id": "138",
      "name_english": "Jamalpur-2",
      "name": "জামালপুর -২",
      "total_population": 391279,
      "registered_voters": 271072,
      "urban_classification": "rural",
      "lat": 25.07999992370605,
      "long": 89.79000091552734,
      "division_id": "8",
      "division": "ময়মনসিংহ",
      "division_english": "Mymensingh",
      "district_id": "5",
      "district": "জামালপুর",
      "district_english": "Jamalpur"
    },
    {
      "id": "139",
      "name_english": "Jamalpur-3",
      "name": "জামালপুর -৩",
      "total_population": 887719,
      "registered_voters": 614999,
      "urban_classification": "rural",
      "lat": 24.97999954223633,
      "long": 89.83000183105469,
      "division_id": "8",
      "division": "ময়মনসিংহ",
      "division_english": "Mymensingh",
      "district_id": "5",
      "district": "জামালপুর",
      "district_english": "Jamalpur"
    },
    {
      "id": "140",
      "name_english": "Jamalpur-4",
      "name": "জামালপুর -৪",
      "total_population": 447111,
      "registered_voters": 309752,
      "urban_classification": "rural",
      "lat": 24.75,
      "long": 89.83999633789062,
      "division_id": "8",
      "division": "ময়মনসিংহ",
      "division_english": "Mymensingh",
      "district_id": "5",
      "district": "জামালপুর",
      "district_english": "Jamalpur"
    },
    {
      "id": "141",
      "name_english": "Jamalpur-5",
      "name": "জামালপুর -৫",
      "total_population": 831309,
      "registered_voters": 575918,
      "urban_classification": "rural",
      "lat": 24.93000030517578,
      "long": 89.94000244140625,
      "division_id": "8",
      "division": "ময়মনসিংহ",
      "division_english": "Mymensingh",
      "district_id": "5",
      "district": "জামালপুর",
      "district_english": "Jamalpur"
    },
    {
      "id": "142",
      "name_english": "Sherpur-1",
      "name": "শেরপুর -১",
      "total_population": 749463,
      "registered_voters": 519216,
      "urban_classification": "rural",
      "lat": 25.01000022888184,
      "long": 90.0199966430664,
      "division_id": "8",
      "division": "ময়মনসিংহ",
      "division_english": "Mymensingh",
      "district_id": "16",
      "district": "শেরপুর",
      "district_english": "Sherpur"
    },
    {
      "id": "143",
      "name_english": "Sherpur-2",
      "name": "শেরপুর -২",
      "total_population": 728289,
      "registered_voters": 504548,
      "urban_classification": "rural",
      "lat": 25.09000015258789,
      "long": 90.19000244140625,
      "division_id": "8",
      "division": "ময়মনসিংহ",
      "division_english": "Mymensingh",
      "district_id": "16",
      "district": "শেরপুর",
      "district_english": "Sherpur"
    },
    {
      "id": "144",
      "name_english": "Sherpur-3",
      "name": "শেরপুর -৩",
      "total_population": 575846,
      "registered_voters": 398938,
      "urban_classification": "rural",
      "lat": 25.14999961853027,
      "long": 89.94000244140625,
      "division_id": "8",
      "division": "ময়মনসিংহ",
      "division_english": "Mymensingh",
      "district_id": "16",
      "district": "শেরপুর",
      "district_english": "Sherpur"
    },
    {
      "id": "145",
      "name_english": "Mymensingh-1",
      "name": "ময়মনসিংহ -১",
      "total_population": 667438,
      "registered_voters": 462391,
      "urban_classification": "rural",
      "lat": 25.1200008392334,
      "long": 90.33999633789062,
      "division_id": "8",
      "division": "ময়মনসিংহ",
      "division_english": "Mymensingh",
      "district_id": "10",
      "district": "ময়মনসিংহ",
      "district_english": "Mymensingh"
    },
    {
      "id": "146",
      "name_english": "Mymensingh-2",
      "name": "ময়মনসিংহ -২",
      "total_population": 797295,
      "registered_voters": 552354,
      "urban_classification": "rural",
      "lat": 24.95000076293945,
      "long": 90.36000061035156,
      "division_id": "8",
      "division": "ময়মনসিংহ",
      "division_english": "Mymensingh",
      "district_id": "10",
      "district": "ময়মনসিংহ",
      "district_english": "Mymensingh"
    },
    {
      "id": "147",
      "name_english": "Mymensingh-3",
      "name": "ময়মনসিংহ -৩",
      "total_population": 414999,
      "registered_voters": 287505,
      "urban_classification": "rural",
      "lat": 24.95000076293945,
      "long": 90.36000061035156,
      "division_id": "8",
      "division": "ময়মনসিংহ",
      "division_english": "Mymensingh",
      "district_id": "10",
      "district": "ময়মনসিংহ",
      "district_english": "Mymensingh"
    },
    {
      "id": "148",
      "name_english": "Mymensingh-4",
      "name": "ময়মনসিংহ -৪",
      "total_population": 1150365,
      "registered_voters": 796955,
      "urban_classification": "urban",
      "lat": 24.76000022888184,
      "long": 90.4000015258789,
      "division_id": "8",
      "division": "ময়মনসিংহ",
      "division_english": "Mymensingh",
      "district_id": "10",
      "district": "ময়মনসিংহ",
      "district_english": "Mymensingh"
    },
    {
      "id": "149",
      "name_english": "Mymensingh-5",
      "name": "ময়মনসিংহ -৫",
      "total_population": 542243,
      "registered_voters": 375658,
      "urban_classification": "rural",
      "lat": 24.77000045776367,
      "long": 90.26000213623047,
      "division_id": "8",
      "division": "ময়মনসিংহ",
      "division_english": "Mymensingh",
      "district_id": "10",
      "district": "ময়মনসিংহ",
      "district_english": "Mymensingh"
    },
    {
      "id": "150",
      "name_english": "Mymensingh-6",
      "name": "ময়মনসিংহ -৬",
      "total_population": 576236,
      "registered_voters": 399207,
      "urban_classification": "rural",
      "lat": 24.6299991607666,
      "long": 90.2699966430664,
      "division_id": "8",
      "division": "ময়মনসিংহ",
      "division_english": "Mymensingh",
      "district_id": "10",
      "district": "ময়মনসিংহ",
      "district_english": "Mymensingh"
    },
    {
      "id": "151",
      "name_english": "Mymensingh-7",
      "name": "ময়মনসিংহ -৭",
      "total_population": 558135,
      "registered_voters": 386667,
      "urban_classification": "rural",
      "lat": 24.57999992370605,
      "long": 90.38999938964844,
      "division_id": "8",
      "division": "ময়মনসিংহ",
      "division_english": "Mymensingh",
      "district_id": "10",
      "district": "ময়মনসিংহ",
      "district_english": "Mymensingh"
    },
    {
      "id": "152",
      "name_english": "Mymensingh-8",
      "name": "ময়মনসিংহ -৮",
      "total_population": 479747,
      "registered_voters": 332362,
      "urban_classification": "rural",
      "lat": 24.69000053405762,
      "long": 90.5999984741211,
      "division_id": "8",
      "division": "ময়মনসিংহ",
      "division_english": "Mymensingh",
      "district_id": "10",
      "district": "ময়মনসিংহ",
      "district_english": "Mymensingh"
    },
    {
      "id": "153",
      "name_english": "Mymensingh-9",
      "name": "ময়মনসিংহ -৯",
      "total_population": 520272,
      "registered_voters": 360437,
      "urban_classification": "rural",
      "lat": 24.56999969482422,
      "long": 90.69000244140625,
      "division_id": "8",
      "division": "ময়মনসিংহ",
      "division_english": "Mymensingh",
      "district_id": "10",
      "district": "ময়মনসিংহ",
      "district_english": "Mymensingh"
    },
    {
      "id": "154",
      "name_english": "Mymensingh-10",
      "name": "ময়মনসিংহ -১০",
      "total_population": 573767,
      "registered_voters": 397497,
      "urban_classification": "rural",
      "lat": 24.45000076293945,
      "long": 90.55000305175781,
      "division_id": "8",
      "division": "ময়মনসিংহ",
      "division_english": "Mymensingh",
      "district_id": "10",
      "district": "ময়মনসিংহ",
      "district_english": "Mymensingh"
    },
    {
      "id": "155",
      "name_english": "Mymensingh-11",
      "name": "ময়মনসিংহ -১১",
      "total_population": 521481,
      "registered_voters": 361274,
      "urban_classification": "rural",
      "lat": 24.39999961853027,
      "long": 90.38999938964844,
      "division_id": "8",
      "division": "ময়মনসিংহ",
      "division_english": "Mymensingh",
      "district_id": "10",
      "district": "ময়মনসিংহ",
      "district_english": "Mymensingh"
    },
    {
      "id": "156",
      "name_english": "Netrokona-1",
      "name": "নেত্রকোনা -১",
      "total_population": 624823,
      "registered_voters": 432868,
      "urban_classification": "rural",
      "lat": 25.07999992370605,
      "long": 90.88999938964844,
      "division_id": "8",
      "division": "ময়মনসিংহ",
      "division_english": "Mymensingh",
      "district_id": "13",
      "district": "নেত্রকোণা",
      "district_english": "Netrokona"
    },
    {
      "id": "157",
      "name_english": "Netrokona-2",
      "name": "নেত্রকোনা -২",
      "total_population": 700976,
      "registered_voters": 485625,
      "urban_classification": "rural",
      "lat": 24.8700008392334,
      "long": 90.7300033569336,
      "division_id": "8",
      "division": "ময়মনসিংহ",
      "division_english": "Mymensingh",
      "district_id": "13",
      "district": "নেত্রকোণা",
      "district_english": "Netrokona"
    },
    {
      "id": "158",
      "name_english": "Netrokona-3",
      "name": "নেত্রকোনা -৩",
      "total_population": 591648,
      "registered_voters": 409885,
      "urban_classification": "rural",
      "lat": 24.65999984741211,
      "long": 90.83999633789062,
      "division_id": "8",
      "division": "ময়মনসিংহ",
      "division_english": "Mymensingh",
      "district_id": "13",
      "district": "নেত্রকোণা",
      "district_english": "Netrokona"
    },
    {
      "id": "159",
      "name_english": "Netrokona-4",
      "name": "নেত্রকোনা -৪",
      "total_population": 527582,
      "registered_voters": 365501,
      "urban_classification": "rural",
      "lat": 24.8700008392334,
      "long": 90.9800033569336,
      "division_id": "8",
      "division": "ময়মনসিংহ",
      "division_english": "Mymensingh",
      "district_id": "13",
      "district": "নেত্রকোণা",
      "district_english": "Netrokona"
    },
    {
      "id": "160",
      "name_english": "Netrokona-5",
      "name": "নেত্রকোনা -৫",
      "total_population": 614405,
      "registered_voters": 425650,
      "urban_classification": "rural",
      "lat": 24.855969,
      "long": 90.822542,
      "division_id": "8",
      "division": "ময়মনসিংহ",
      "division_english": "Mymensingh",
      "district_id": "13",
      "district": "নেত্রকোণা",
      "district_english": "Netrokona"
    },
    {
      "id": "161",
      "name_english": "Kishoreganj-1",
      "name": "কিশোরগঞ্জ -১",
      "total_population": 761013,
      "registered_voters": 527218,
      "urban_classification": "rural",
      "lat": 24.45000076293945,
      "long": 90.77999877929688,
      "division_id": "3",
      "division": "ঢাকা",
      "division_english": "Dhaka",
      "district_id": "6",
      "district": "কিশোরগঞ্জ",
      "district_english": "Kishoreganj"
    },
    {
      "id": "162",
      "name_english": "Kishoreganj-2",
      "name": "কিশোরগঞ্জ -২",
      "total_population": 738144,
      "registered_voters": 511375,
      "urban_classification": "rural",
      "lat": 24.351918,
      "long": 90.956799,
      "division_id": "3",
      "division": "ঢাকা",
      "division_english": "Dhaka",
      "district_id": "6",
      "district": "কিশোরগঞ্জ",
      "district_english": "Kishoreganj"
    },
    {
      "id": "163",
      "name_english": "Kishoreganj-3",
      "name": "কিশোরগঞ্জ -৩",
      "total_population": 614405,
      "registered_voters": 425650,
      "urban_classification": "rural",
      "lat": 24.347028,
      "long": 90.929807,
      "division_id": "3",
      "division": "ঢাকা",
      "division_english": "Dhaka",
      "district_id": "6",
      "district": "কিশোরগঞ্জ",
      "district_english": "Kishoreganj"
    },
    {
      "id": "164",
      "name_english": "Kishoreganj-4",
      "name": "কিশোরগঞ্জ -৪",
      "total_population": 566517,
      "registered_voters": 392474,
      "urban_classification": "rural",
      "lat": 24.53000068664551,
      "long": 91.0999984741211,
      "division_id": "3",
      "division": "ঢাকা",
      "division_english": "Dhaka",
      "district_id": "6",
      "district": "কিশোরগঞ্জ",
      "district_english": "Kishoreganj"
    },
    {
      "id": "165",
      "name_english": "Kishoreganj-5",
      "name": "কিশোরগঞ্জ -৫",
      "total_population": 493036,
      "registered_voters": 341568,
      "urban_classification": "rural",
      "lat": 24.20999908447266,
      "long": 90.94000244140625,
      "division_id": "3",
      "division": "ঢাকা",
      "division_english": "Dhaka",
      "district_id": "6",
      "district": "কিশোরগঞ্জ",
      "district_english": "Kishoreganj"
    },
    {
      "id": "166",
      "name_english": "Kishoreganj-6",
      "name": "কিশোরগঞ্জ -৬",
      "total_population": 588460,
      "registered_voters": 407676,
      "urban_classification": "rural",
      "lat": 24.05999946594238,
      "long": 90.9800033569336,
      "division_id": "3",
      "division": "ঢাকা",
      "division_english": "Dhaka",
      "district_id": "6",
      "district": "কিশোরগঞ্জ",
      "district_english": "Kishoreganj"
    },
    {
      "id": "167",
      "name_english": "Manikganj-1",
      "name": "মানিকগঞ্জ -১",
      "total_population": 680377,
      "registered_voters": 471355,
      "urban_classification": "rural",
      "lat": 23.84000015258789,
      "long": 89.81999969482422,
      "division_id": "3",
      "division": "ঢাকা",
      "division_english": "Dhaka",
      "district_id": "8",
      "district": "মানিকগঞ্জ",
      "district_english": "Manikganj"
    },
    {
      "id": "168",
      "name_english": "Manikganj-2",
      "name": "মানিকগঞ্জ -২",
      "total_population": 718649,
      "registered_voters": 497869,
      "urban_classification": "rural",
      "lat": 23.80999946594238,
      "long": 90.1500015258789,
      "division_id": "3",
      "division": "ঢাকা",
      "division_english": "Dhaka",
      "district_id": "8",
      "district": "মানিকগঞ্জ",
      "district_english": "Manikganj"
    },
    {
      "id": "169",
      "name_english": "Manikganj-3",
      "name": "মানিকগঞ্জ -৩",
      "total_population": 565590,
      "registered_voters": 391832,
      "urban_classification": "rural",
      "lat": 23.80999946594238,
      "long": 90.1500015258789,
      "division_id": "3",
      "division": "ঢাকা",
      "division_english": "Dhaka",
      "district_id": "8",
      "district": "মানিকগঞ্জ",
      "district_english": "Manikganj"
    },
    {
      "id": "170",
      "name_english": "Munshiganj-1",
      "name": "মুন্সীগঞ্জ -১",
      "total_population": 779302,
      "registered_voters": 539888,
      "urban_classification": "rural",
      "lat": 23.56999969482422,
      "long": 90.37000274658203,
      "division_id": "3",
      "division": "ঢাকা",
      "division_english": "Dhaka",
      "district_id": "9",
      "district": "মুন্সিগঞ্জ",
      "district_english": "Munshiganj"
    },
    {
      "id": "171",
      "name_english": "Munshiganj-2",
      "name": "মুন্সীগঞ্জ -২",
      "total_population": 541292,
      "registered_voters": 374999,
      "urban_classification": "rural",
      "lat": 23.51000022888184,
      "long": 90.47000122070312,
      "division_id": "3",
      "division": "ঢাকা",
      "division_english": "Dhaka",
      "district_id": "9",
      "district": "মুন্সিগঞ্জ",
      "district_english": "Munshiganj"
    },
    {
      "id": "172",
      "name_english": "Munshiganj-3",
      "name": "মুন্সীগঞ্জ -৩",
      "total_population": 614405,
      "registered_voters": 425650,
      "urban_classification": "rural",
      "lat": 23.574528,
      "long": 90.399808,
      "division_id": "3",
      "division": "ঢাকা",
      "division_english": "Dhaka",
      "district_id": "9",
      "district": "মুন্সিগঞ্জ",
      "district_english": "Munshiganj"
    },
    {
      "id": "173",
      "name_english": "Dhaka-1",
      "name": "ঢাকা -১",
      "total_population": 778869,
      "registered_voters": 539589,
      "urban_classification": "rural",
      "lat": 23.65999984741211,
      "long": 90.16000366210938,
      "division_id": "3",
      "division": "ঢাকা",
      "division_english": "Dhaka",
      "district_id": "1",
      "district": "ঢাকা",
      "district_english": "Dhaka"
    },
    {
      "id": "174",
      "name_english": "Dhaka-2",
      "name": "ঢাকা -২",
      "total_population": 874500,
      "registered_voters": 605840,
      "urban_classification": "rural",
      "lat": 23.70000076293945,
      "long": 90.33999633789062,
      "division_id": "3",
      "division": "ঢাকা",
      "division_english": "Dhaka",
      "district_id": "1",
      "district": "ঢাকা",
      "district_english": "Dhaka"
    },
    {
      "id": "175",
      "name_english": "Dhaka-3",
      "name": "ঢাকা -৩",
      "total_population": 551251,
      "registered_voters": 381898,
      "urban_classification": "rural",
      "lat": 23.70000076293945,
      "long": 90.33999633789062,
      "division_id": "3",
      "division": "ঢাকা",
      "division_english": "Dhaka",
      "district_id": "1",
      "district": "ঢাকা",
      "district_english": "Dhaka"
    },
    {
      "id": "176",
      "name_english": "Dhaka-4",
      "name": "ঢাকা -৪",
      "total_population": 434844,
      "registered_voters": 301253,
      "urban_classification": "urban",
      "lat": 23.69000053405762,
      "long": 90.43000030517578,
      "division_id": "3",
      "division": "ঢাকা",
      "division_english": "Dhaka",
      "district_id": "1",
      "district": "ঢাকা",
      "district_english": "Dhaka"
    },
    {
      "id": "177",
      "name_english": "Dhaka-5",
      "name": "ঢাকা -৫",
      "total_population": 797127,
      "registered_voters": 552238,
      "urban_classification": "urban",
      "lat": 23.70999908447266,
      "long": 90.44000244140625,
      "division_id": "3",
      "division": "ঢাকা",
      "division_english": "Dhaka",
      "district_id": "1",
      "district": "ঢাকা",
      "district_english": "Dhaka"
    },
    {
      "id": "178",
      "name_english": "Dhaka-6",
      "name": "ঢাকা -৬",
      "total_population": 476419,
      "registered_voters": 330056,
      "urban_classification": "urban",
      "lat": 23.70999908447266,
      "long": 90.41999816894531,
      "division_id": "3",
      "division": "ঢাকা",
      "division_english": "Dhaka",
      "district_id": "1",
      "district": "ঢাকা",
      "district_english": "Dhaka"
    },
    {
      "id": "179",
      "name_english": "Dhaka-7",
      "name": "ঢাকা -৭",
      "total_population": 580552,
      "registered_voters": 402198,
      "urban_classification": "urban",
      "lat": 23.71999931335449,
      "long": 90.38999938964844,
      "division_id": "3",
      "division": "ঢাকা",
      "division_english": "Dhaka",
      "district_id": "1",
      "district": "ঢাকা",
      "district_english": "Dhaka"
    },
    {
      "id": "180",
      "name_english": "Dhaka-8",
      "name": "ঢাকা -৮",
      "total_population": 468191,
      "registered_voters": 324356,
      "urban_classification": "urban",
      "lat": 23.72999954223633,
      "long": 90.41000366210938,
      "division_id": "3",
      "division": "ঢাকা",
      "division_english": "Dhaka",
      "district_id": "1",
      "district": "ঢাকা",
      "district_english": "Dhaka"
    },
    {
      "id": "181",
      "name_english": "Dhaka-9",
      "name": "ঢাকা -৯",
      "total_population": 752712,
      "registered_voters": 521468,
      "urban_classification": "urban",
      "lat": 23.73999977111816,
      "long": 90.44000244140625,
      "division_id": "3",
      "division": "ঢাকা",
      "division_english": "Dhaka",
      "district_id": "1",
      "district": "ঢাকা",
      "district_english": "Dhaka"
    },
    {
      "id": "182",
      "name_english": "Dhaka-10",
      "name": "ঢাকা -১০",
      "total_population": 555014,
      "registered_voters": 384506,
      "urban_classification": "urban",
      "lat": 23.73999977111816,
      "long": 90.37999725341797,
      "division_id": "3",
      "division": "ঢাকা",
      "division_english": "Dhaka",
      "district_id": "1",
      "district": "ঢাকা",
      "district_english": "Dhaka"
    },
    {
      "id": "183",
      "name_english": "Dhaka-11",
      "name": "ঢাকা -১১",
      "total_population": 734940,
      "registered_voters": 509156,
      "urban_classification": "urban",
      "lat": 23.77000045776367,
      "long": 90.43000030517578,
      "division_id": "3",
      "division": "ঢাকা",
      "division_english": "Dhaka",
      "district_id": "1",
      "district": "ঢাকা",
      "district_english": "Dhaka"
    },
    {
      "id": "184",
      "name_english": "Dhaka-12",
      "name": "ঢাকা -১২",
      "total_population": 601178,
      "registered_voters": 416487,
      "urban_classification": "urban",
      "lat": 23.70999908447266,
      "long": 90.41999816894531,
      "division_id": "3",
      "division": "ঢাকা",
      "division_english": "Dhaka",
      "district_id": "1",
      "district": "ঢাকা",
      "district_english": "Dhaka"
    },
    {
      "id": "185",
      "name_english": "Dhaka-13",
      "name": "ঢাকা -১৩",
      "total_population": 614405,
      "registered_voters": 425650,
      "urban_classification": "urban",
      "lat": 23.768875,
      "long": 90.332091,
      "division_id": "3",
      "division": "ঢাকা",
      "division_english": "Dhaka",
      "district_id": "1",
      "district": "ঢাকা",
      "district_english": "Dhaka"
    },
    {
      "id": "186",
      "name_english": "Dhaka-14",
      "name": "ঢাকা -১৪",
      "total_population": 614405,
      "registered_voters": 425650,
      "urban_classification": "urban",
      "lat": 23.741452,
      "long": 90.332783,
      "division_id": "3",
      "division": "ঢাকা",
      "division_english": "Dhaka",
      "district_id": "1",
      "district": "ঢাকা",
      "district_english": "Dhaka"
    },
    {
      "id": "187",
      "name_english": "Dhaka-15",
      "name": "ঢাকা -১৫",
      "total_population": 602309,
      "registered_voters": 417271,
      "urban_classification": "urban",
      "lat": 23.79000091552734,
      "long": 90.38999938964844,
      "division_id": "3",
      "division": "ঢাকা",
      "division_english": "Dhaka",
      "district_id": "1",
      "district": "ঢাকা",
      "district_english": "Dhaka"
    },
    {
      "id": "188",
      "name_english": "Dhaka-16",
      "name": "ঢাকা -১৬",
      "total_population": 661880,
      "registered_voters": 458540,
      "urban_classification": "urban",
      "lat": 23.82999992370605,
      "long": 90.36000061035156,
      "division_id": "3",
      "division": "ঢাকা",
      "division_english": "Dhaka",
      "district_id": "1",
      "district": "ঢাকা",
      "district_english": "Dhaka"
    },
    {
      "id": "189",
      "name_english": "Dhaka-17",
      "name": "ঢাকা -১৭",
      "total_population": 555245,
      "registered_voters": 384666,
      "urban_classification": "urban",
      "lat": 23.79999923706055,
      "long": 90.41000366210938,
      "division_id": "3",
      "division": "ঢাকা",
      "division_english": "Dhaka",
      "district_id": "1",
      "district": "ঢাকা",
      "district_english": "Dhaka"
    },
    {
      "id": "190",
      "name_english": "Dhaka-18",
      "name": "ঢাকা -১৮",
      "total_population": 983164,
      "registered_voters": 681121,
      "urban_classification": "urban",
      "lat": 23.86000061035156,
      "long": 90.43000030517578,
      "division_id": "3",
      "division": "ঢাকা",
      "division_english": "Dhaka",
      "district_id": "1",
      "district": "ঢাকা",
      "district_english": "Dhaka"
    },
    {
      "id": "191",
      "name_english": "Dhaka-19",
      "name": "ঢাকা -১৯",
      "total_population": 1321352,
      "registered_voters": 915414,
      "urban_classification": "urban",
      "lat": 23.82999992370605,
      "long": 90.26000213623047,
      "division_id": "3",
      "division": "ঢাকা",
      "division_english": "Dhaka",
      "district_id": "1",
      "district": "ঢাকা",
      "district_english": "Dhaka"
    },
    {
      "id": "192",
      "name_english": "Dhaka-20",
      "name": "ঢাকা -২০",
      "total_population": 566475,
      "registered_voters": 392446,
      "urban_classification": "rural",
      "lat": 23.92000007629395,
      "long": 90.20999908447266,
      "division_id": "3",
      "division": "ঢাকা",
      "division_english": "Dhaka",
      "district_id": "1",
      "district": "ঢাকা",
      "district_english": "Dhaka"
    },
    {
      "id": "193",
      "name_english": "Gazipur-1",
      "name": "গাজীপুর -১",
      "total_population": 1175537,
      "registered_voters": 814396,
      "urban_classification": "urban",
      "lat": 24.20000076293945,
      "long": 90.47000122070312,
      "division_id": "3",
      "division": "ঢাকা",
      "division_english": "Dhaka",
      "district_id": "3",
      "district": "গাজীপুর",
      "district_english": "Gazipur"
    },
    {
      "id": "194",
      "name_english": "Gazipur-2",
      "name": "গাজীপুর -২",
      "total_population": 1319207,
      "registered_voters": 913928,
      "urban_classification": "urban",
      "lat": 24,
      "long": 90.43000030517578,
      "division_id": "3",
      "division": "ঢাকা",
      "division_english": "Dhaka",
      "district_id": "3",
      "district": "গাজীপুর",
      "district_english": "Gazipur"
    },
    {
      "id": "195",
      "name_english": "Gazipur-3",
      "name": "গাজীপুর -৩",
      "total_population": 772466,
      "registered_voters": 535153,
      "urban_classification": "rural",
      "lat": 24.20000076293945,
      "long": 90.47000122070312,
      "division_id": "3",
      "division": "ঢাকা",
      "division_english": "Dhaka",
      "district_id": "3",
      "district": "গাজীপুর",
      "district_english": "Gazipur"
    },
    {
      "id": "196",
      "name_english": "Gazipur-4",
      "name": "গাজীপুর -৪",
      "total_population": 473020,
      "registered_voters": 327701,
      "urban_classification": "rural",
      "lat": 24.11000061035156,
      "long": 90.56999969482422,
      "division_id": "3",
      "division": "ঢাকা",
      "division_english": "Dhaka",
      "district_id": "3",
      "district": "গাজীপুর",
      "district_english": "Gazipur"
    },
    {
      "id": "197",
      "name_english": "Gazipur-5",
      "name": "গাজীপুর -৫",
      "total_population": 535221,
      "registered_voters": 370793,
      "urban_classification": "urban",
      "lat": 23.92000007629395,
      "long": 90.56999969482422,
      "division_id": "3",
      "division": "ঢাকা",
      "division_english": "Dhaka",
      "district_id": "3",
      "district": "গাজীপুর",
      "district_english": "Gazipur"
    },
    {
      "id": "198",
      "name_english": "Gazipur-6",
      "name": "গাজীপুর -৬",
      "total_population": 614405,
      "registered_voters": 425650,
      "urban_classification": "urban",
      "lat": 24.051137,
      "long": 90.48239,
      "division_id": "3",
      "division": "ঢাকা",
      "division_english": "Dhaka",
      "district_id": "3",
      "district": "গাজীপুর",
      "district_english": "Gazipur"
    },
    {
      "id": "199",
      "name_english": "Narsingdi-1",
      "name": "নরসিংদী -১",
      "total_population": 672389,
      "registered_voters": 465821,
      "urban_classification": "rural",
      "lat": 23.93000030517578,
      "long": 90.72000122070312,
      "division_id": "3",
      "division": "ঢাকা",
      "division_english": "Dhaka",
      "district_id": "12",
      "district": "নরসিংদী",
      "district_english": "Narsingdi"
    },
    {
      "id": "200",
      "name_english": "Narsingdi-2",
      "name": "নরসিংদী -২",
      "total_population": 414607,
      "registered_voters": 287233,
      "urban_classification": "rural",
      "lat": 23.97999954223633,
      "long": 90.6500015258789,
      "division_id": "3",
      "division": "ঢাকা",
      "division_english": "Dhaka",
      "district_id": "12",
      "district": "নরসিংদী",
      "district_english": "Narsingdi"
    },
    {
      "id": "201",
      "name_english": "Narsingdi-3",
      "name": "নরসিংদী -৩",
      "total_population": 397335,
      "registered_voters": 275268,
      "urban_classification": "rural",
      "lat": 24.04000091552734,
      "long": 90.73999786376953,
      "division_id": "3",
      "division": "ঢাকা",
      "division_english": "Dhaka",
      "district_id": "12",
      "district": "নরসিংদী",
      "district_english": "Narsingdi"
    },
    {
      "id": "202",
      "name_english": "Narsingdi-4",
      "name": "নরসিংদী -৪",
      "total_population": 604542,
      "registered_voters": 418818,
      "urban_classification": "rural",
      "lat": 24.14999961853027,
      "long": 90.69999694824219,
      "division_id": "3",
      "division": "ঢাকা",
      "division_english": "Dhaka",
      "district_id": "12",
      "district": "নরসিংদী",
      "district_english": "Narsingdi"
    },
    {
      "id": "203",
      "name_english": "Narsingdi-5",
      "name": "নরসিংদী -৫",
      "total_population": 805422,
      "registered_voters": 557984,
      "urban_classification": "rural",
      "lat": 23.99290084838867,
      "long": 90.87030029296875,
      "division_id": "3",
      "division": "ঢাকা",
      "division_english": "Dhaka",
      "district_id": "12",
      "district": "নরসিংদী",
      "district_english": "Narsingdi"
    },
    {
      "id": "204",
      "name_english": "Narayanganj-1",
      "name": "নারায়ণগঞ্জ -১",
      "total_population": 614405,
      "registered_voters": 425650,
      "urban_classification": "rural",
      "lat": 23.712435,
      "long": 90.577263,
      "division_id": "3",
      "division": "ঢাকা",
      "division_english": "Dhaka",
      "district_id": "11",
      "district": "নারায়াণগঞ্জ",
      "district_english": "Narayanganj"
    },
    {
      "id": "205",
      "name_english": "Narayanganj-2",
      "name": "নারায়ণগঞ্জ -২",
      "total_population": 502162,
      "registered_voters": 347890,
      "urban_classification": "rural",
      "lat": 23.79000091552734,
      "long": 90.66000366210938,
      "division_id": "3",
      "division": "ঢাকা",
      "division_english": "Dhaka",
      "district_id": "11",
      "district": "নারায়াণগঞ্জ",
      "district_english": "Narayanganj"
    },
    {
      "id": "206",
      "name_english": "Narayanganj-3",
      "name": "নারায়ণগঞ্জ -৩",
      "total_population": 614405,
      "registered_voters": 425650,
      "urban_classification": "urban",
      "lat": 23.721195,
      "long": 90.526475,
      "division_id": "3",
      "division": "ঢাকা",
      "division_english": "Dhaka",
      "district_id": "11",
      "district": "নারায়াণগঞ্জ",
      "district_english": "Narayanganj"
    },
    {
      "id": "207",
      "name_english": "Narayanganj-4",
      "name": "নারায়ণগঞ্জ -৪",
      "total_population": 1151797,
      "registered_voters": 797949,
      "urban_classification": "rural",
      "lat": 23.63999938964844,
      "long": 90.4800033569336,
      "division_id": "3",
      "division": "ঢাকা",
      "division_english": "Dhaka",
      "district_id": "11",
      "district": "নারায়াণগঞ্জ",
      "district_english": "Narayanganj"
    },
    {
      "id": "208",
      "name_english": "Narayanganj-5",
      "name": "নারায়ণগঞ্জ -৫",
      "total_population": 788295,
      "registered_voters": 546119,
      "urban_classification": "urban",
      "lat": 23.6299991607666,
      "long": 90.5,
      "division_id": "3",
      "division": "ঢাকা",
      "division_english": "Dhaka",
      "district_id": "11",
      "district": "নারায়াণগঞ্জ",
      "district_english": "Narayanganj"
    },
    {
      "id": "209",
      "name_english": "Rajbari-1",
      "name": "রাজবাড়ী -১",
      "total_population": 613169,
      "registered_voters": 424795,
      "urban_classification": "rural",
      "lat": 23.76000022888184,
      "long": 89.63999938964844,
      "division_id": "3",
      "division": "ঢাকা",
      "division_english": "Dhaka",
      "district_id": "14",
      "district": "রাজবাড়ি",
      "district_english": "Rajbari"
    },
    {
      "id": "210",
      "name_english": "Rajbari-2",
      "name": "রাজবাড়ী -২",
      "total_population": 818116,
      "registered_voters": 566778,
      "urban_classification": "rural",
      "lat": 23.76000022888184,
      "long": 89.63999938964844,
      "division_id": "3",
      "division": "ঢাকা",
      "division_english": "Dhaka",
      "district_id": "14",
      "district": "রাজবাড়ি",
      "district_english": "Rajbari"
    },
    {
      "id": "211",
      "name_english": "Faridpur-1",
      "name": "ফরিদপুর -১",
      "total_population": 726178,
      "registered_voters": 503085,
      "urban_classification": "rural",
      "lat": 23.38999938964844,
      "long": 89.68000030517578,
      "division_id": "3",
      "division": "ঢাকা",
      "division_english": "Dhaka",
      "district_id": "2",
      "district": "ফরিদপুর",
      "district_english": "Faridpur"
    },
    {
      "id": "212",
      "name_english": "Faridpur-2",
      "name": "ফরিদপুর -২",
      "total_population": 508359,
      "registered_voters": 352183,
      "urban_classification": "rural",
      "lat": 23.42000007629395,
      "long": 89.88999938964844,
      "division_id": "3",
      "division": "ঢাকা",
      "division_english": "Dhaka",
      "district_id": "2",
      "district": "ফরিদপুর",
      "district_english": "Faridpur"
    },
    {
      "id": "213",
      "name_english": "Faridpur-3",
      "name": "ফরিদপুর -৩",
      "total_population": 625288,
      "registered_voters": 433190,
      "urban_classification": "rural",
      "lat": 23.61000061035156,
      "long": 89.83999633789062,
      "division_id": "3",
      "division": "ঢাকা",
      "division_english": "Dhaka",
      "district_id": "2",
      "district": "ফরিদপুর",
      "district_english": "Faridpur"
    },
    {
      "id": "214",
      "name_english": "Faridpur-4",
      "name": "ফরিদপুর -৪",
      "total_population": 655760,
      "registered_voters": 454301,
      "urban_classification": "rural",
      "lat": 23.38999938964844,
      "long": 89.9800033569336,
      "division_id": "3",
      "division": "ঢাকা",
      "division_english": "Dhaka",
      "district_id": "2",
      "district": "ফরিদপুর",
      "district_english": "Faridpur"
    },
    {
      "id": "215",
      "name_english": "Gopalganj-1",
      "name": "গোপালগঞ্জ -১",
      "total_population": 568647,
      "registered_voters": 393950,
      "urban_classification": "rural",
      "lat": 23.31999969482422,
      "long": 89.87000274658203,
      "division_id": "3",
      "division": "ঢাকা",
      "division_english": "Dhaka",
      "district_id": "4",
      "district": "গোপালগঞ্জ",
      "district_english": "Gopalganj"
    },
    {
      "id": "216",
      "name_english": "Gopalganj-2",
      "name": "গোপালগঞ্জ -২",
      "total_population": 551614,
      "registered_voters": 382150,
      "urban_classification": "rural",
      "lat": 23.01000022888184,
      "long": 89.83000183105469,
      "division_id": "3",
      "division": "ঢাকা",
      "division_english": "Dhaka",
      "district_id": "4",
      "district": "গোপালগঞ্জ",
      "district_english": "Gopalganj"
    },
    {
      "id": "217",
      "name_english": "Gopalganj-3",
      "name": "গোপালগঞ্জ -৩",
      "total_population": 436387,
      "registered_voters": 302322,
      "urban_classification": "rural",
      "lat": 22.98999977111816,
      "long": 90,
      "division_id": "3",
      "division": "ঢাকা",
      "division_english": "Dhaka",
      "district_id": "4",
      "district": "গোপালগঞ্জ",
      "district_english": "Gopalganj"
    },
    {
      "id": "218",
      "name_english": "Madaripur-1",
      "name": "মাদারীপুর -১",
      "total_population": 433573,
      "registered_voters": 300373,
      "urban_classification": "rural",
      "lat": 23.35000038146973,
      "long": 90.16999816894531,
      "division_id": "3",
      "division": "ঢাকা",
      "division_english": "Dhaka",
      "district_id": "7",
      "district": "মাদারীপুর",
      "district_english": "Madaripur"
    },
    {
      "id": "219",
      "name_english": "Madaripur-2",
      "name": "মাদারীপুর -২",
      "total_population": 614251,
      "registered_voters": 425544,
      "urban_classification": "rural",
      "lat": 23.20999908447266,
      "long": 90.05000305175781,
      "division_id": "3",
      "division": "ঢাকা",
      "division_english": "Dhaka",
      "district_id": "7",
      "district": "মাদারীপুর",
      "district_english": "Madaripur"
    },
    {
      "id": "220",
      "name_english": "Madaripur-3",
      "name": "মাদারীপুর -৩",
      "total_population": 527083,
      "registered_voters": 365156,
      "urban_classification": "rural",
      "lat": 23.06999969482422,
      "long": 90.2300033569336,
      "division_id": "3",
      "division": "ঢাকা",
      "division_english": "Dhaka",
      "district_id": "7",
      "district": "মাদারীপুর",
      "district_english": "Madaripur"
    },